timestamp,message_type,servo1_raw,servo2_raw,servo3_raw,servo4_raw,servo5_raw,servo6_raw,servo7_raw,servo8_raw,rc1_raw,rc2_raw,rc3_raw,rc4_raw,rc5_raw,rc6_raw,rc7_raw,rc8_raw,rc9_raw,rc10_raw,rc11_raw,rc12_raw,rc13_raw,rc14_raw,rc15_raw,rc16_raw,rc17_raw,rc18_raw,rssi
2025-03-31 15:41:56.680698,SERVO_OUTPUT_RAW,1500,1500,1500,1500,1500,1500,1500,1500,,,,,,,,,,,,,,,,,,,
2025-03-31 15:41:56.683839,RC_CHANNELS,,,,,,,,,1500,1500,1500,1498,1496,1503,1500,1500,1100,1100,1100,0,0,0,0,0,0,0,0
2025-03-31 15:41:57.179397,SERVO_OUTPUT_RAW,1500,1500,1500,1500,1500,1500,1500,1500,,,,,,,,,,,,,,,,,,,
2025-03-31 15:41:57.183456,RC_CHANNELS,,,,,,,,,1500,1500,1500,1498,1496,1503,1500,1500,1100,1100,1100,0,0,0,0,0,0,0,0
2025-03-31 15:41:57.693312,SERVO_OUTPUT_RAW,1500,1500,1500,1500,1500,1500,1500,1500,,,,,,,,,,,,,,,,,,,
2025-03-31 15:41:57.695752,RC_CHANNELS,,,,,,,,,1500,1500,1500,1498,1496,1503,1500,1500,1100,1100,1100,0,0,0,0,0,0,0,0
2025-03-31 15:41:58.180291,SERVO_OUTPUT_RAW,1500,1500,1500,1500,1500,1500,1500,1500,,,,,,,,,,,,,,,,,,,
2025-03-31 15:41:58.183769,RC_CHANNELS,,,,,,,,,1500,1500,1500,1498,1496,1503,1500,1500,1100,1100,1100,0,0,0,0,0,0,0,0
2025-03-31 15:41:58.699662,SERVO_OUTPUT_RAW,1500,1500,1500,1500,1500,1500,1500,1500,,,,,,,,,,,,,,,,,,,
2025-03-31 15:41:58.699922,RC_CHANNELS,,,,,,,,,1500,1500,1500,1498,1496,1503,1500,1500,1100,1100,1100,0,0,0,0,0,0,0,0
2025-03-31 15:41:59.178985,SERVO_OUTPUT_RAW,1500,1500,1500,1500,1500,1500,1500,1500,,,,,,,,,,,,,,,,,,,
2025-03-31 15:41:59.182917,RC_CHANNELS,,,,,,,,,1500,1500,1500,1498,1496,1503,1500,1500,1100,1100,1100,0,0,0,0,0,0,0,0
2025-03-31 15:41:59.683694,SERVO_OUTPUT_RAW,1500,1500,1500,1500,1500,1500,1500,1500,,,,,,,,,,,,,,,,,,,
2025-03-31 15:41:59.689463,RC_CHANNELS,,,,,,,,,1500,1500,1500,1498,1496,1503,1500,1500,1100,1100,1100,0,0,0,0,0,0,0,0
2025-03-31 15:42:00.179285,SERVO_OUTPUT_RAW,1500,1500,1500,1500,1500,1500,1500,1500,,,,,,,,,,,,,,,,,,,
2025-03-31 15:42:00.182910,RC_CHANNELS,,,,,,,,,1500,1500,1500,1498,1496,1503,1500,1500,1100,1100,1100,0,0,0,0,0,0,0,0
2025-03-31 15:42:00.684237,SERVO_OUTPUT_RAW,1500,1500,1500,1500,1500,1500,1500,1500,,,,,,,,,,,,,,,,,,,
2025-03-31 15:42:00.689269,RC_CHANNELS,,,,,,,,,1500,1500,1500,1498,1496,1503,1500,1500,1100,1100,1100,0,0,0,0,0,0,0,0
2025-03-31 15:42:01.179497,SERVO_OUTPUT_RAW,1500,1500,1500,1500,1500,1500,1500,1500,,,,,,,,,,,,,,,,,,,
2025-03-31 15:42:01.183493,RC_CHANNELS,,,,,,,,,1500,1500,1500,1498,1496,1503,1500,1500,1100,1100,1100,0,0,0,0,0,0,0,0
2025-03-31 15:42:01.680405,SERVO_OUTPUT_RAW,1500,1500,1500,1500,1500,1500,1500,1500,,,,,,,,,,,,,,,,,,,
2025-03-31 15:42:01.685387,RC_CHANNELS,,,,,,,,,1500,1500,1500,1498,1496,1503,1500,1500,1100,1100,1100,0,0,0,0,0,0,0,0
2025-03-31 15:42:02.178910,SERVO_OUTPUT_RAW,1500,1500,1500,1500,1500,1500,1500,1500,,,,,,,,,,,,,,,,,,,
2025-03-31 15:42:02.182655,RC_CHANNELS,,,,,,,,,1500,1500,1500,1498,1496,1503,1500,1500,1100,1100,1100,0,0,0,0,0,0,0,0
2025-03-31 15:42:02.690500,SERVO_OUTPUT_RAW,1500,1500,1500,1500,1500,1500,1500,1500,,,,,,,,,,,,,,,,,,,
2025-03-31 15:42:02.697820,RC_CHANNELS,,,,,,,,,1500,1500,1500,1498,1496,1503,1500,1500,1100,1100,1100,0,0,0,0,0,0,0,0
2025-03-31 15:42:03.179882,SERVO_OUTPUT_RAW,1500,1500,1500,1500,1500,1500,1500,1500,,,,,,,,,,,,,,,,,,,
2025-03-31 15:42:03.183285,RC_CHANNELS,,,,,,,,,1500,1500,1500,1498,1496,1503,1500,1500,1100,1100,1100,0,0,0,0,0,0,0,0
2025-03-31 15:42:03.679266,SERVO_OUTPUT_RAW,1500,1500,1500,1500,1500,1500,1500,1500,,,,,,,,,,,,,,,,,,,
2025-03-31 15:42:03.682782,RC_CHANNELS,,,,,,,,,1500,1500,1500,1498,1496,1503,1500,1500,1100,1100,1100,0,0,0,0,0,0,0,0
2025-03-31 15:42:04.179810,SERVO_OUTPUT_RAW,1500,1500,1500,1500,1500,1500,1500,1500,,,,,,,,,,,,,,,,,,,
2025-03-31 15:42:04.183279,RC_CHANNELS,,,,,,,,,1500,1500,1500,1498,1496,1503,1500,1500,1100,1100,1100,0,0,0,0,0,0,0,0
2025-03-31 15:42:04.679859,SERVO_OUTPUT_RAW,1500,1500,1500,1500,1500,1500,1500,1500,,,,,,,,,,,,,,,,,,,
2025-03-31 15:42:04.683306,RC_CHANNELS,,,,,,,,,1500,1500,1500,1498,1496,1503,1500,1500,1100,1100,1100,0,0,0,0,0,0,0,0
2025-03-31 15:42:05.181265,SERVO_OUTPUT_RAW,1500,1500,1500,1500,1500,1500,1500,1500,,,,,,,,,,,,,,,,,,,
2025-03-31 15:42:05.183800,RC_CHANNELS,,,,,,,,,1500,1500,1500,1498,1496,1503,1500,1500,1100,1100,1100,0,0,0,0,0,0,0,0
2025-03-31 15:42:05.679257,SERVO_OUTPUT_RAW,1500,1500,1500,1500,1500,1500,1500,1500,,,,,,,,,,,,,,,,,,,
2025-03-31 15:42:05.683293,RC_CHANNELS,,,,,,,,,1500,1500,1500,1498,1496,1503,1500,1500,1100,1100,1100,0,0,0,0,0,0,0,0
2025-03-31 15:42:06.179693,SERVO_OUTPUT_RAW,1500,1500,1500,1500,1500,1500,1500,1500,,,,,,,,,,,,,,,,,,,
2025-03-31 15:42:06.183170,RC_CHANNELS,,,,,,,,,1500,1500,1500,1498,1496,1503,1500,1500,1100,1100,1100,0,0,0,0,0,0,0,0
2025-03-31 15:42:06.679173,SERVO_OUTPUT_RAW,1500,1500,1500,1500,1500,1500,1500,1500,,,,,,,,,,,,,,,,,,,
2025-03-31 15:42:06.684015,RC_CHANNELS,,,,,,,,,1500,1500,1500,1498,1496,1503,1500,1500,1100,1100,1100,0,0,0,0,0,0,0,0
2025-03-31 15:42:07.180350,SERVO_OUTPUT_RAW,1500,1500,1500,1500,1500,1500,1500,1500,,,,,,,,,,,,,,,,,,,
2025-03-31 15:42:07.182723,RC_CHANNELS,,,,,,,,,1500,1500,1500,1498,1496,1503,1500,1500,1100,1100,1100,0,0,0,0,0,0,0,0
2025-03-31 15:42:07.695341,SERVO_OUTPUT_RAW,1500,1500,1500,1500,1500,1500,1500,1500,,,,,,,,,,,,,,,,,,,
2025-03-31 15:42:07.697858,RC_CHANNELS,,,,,,,,,1500,1500,1500,1498,1496,1503,1500,1500,1100,1100,1100,0,0,0,0,0,0,0,0
2025-03-31 15:42:08.178746,SERVO_OUTPUT_RAW,1500,1500,1500,1500,1500,1500,1500,1500,,,,,,,,,,,,,,,,,,,
2025-03-31 15:42:08.182379,RC_CHANNELS,,,,,,,,,1500,1500,1500,1498,1496,1503,1500,1500,1100,1100,1100,0,0,0,0,0,0,0,0
2025-03-31 15:42:08.678832,SERVO_OUTPUT_RAW,1500,1500,1500,1500,1500,1500,1500,1500,,,,,,,,,,,,,,,,,,,
2025-03-31 15:42:08.682600,RC_CHANNELS,,,,,,,,,1500,1500,1500,1498,1496,1503,1500,1500,1100,1100,1100,0,0,0,0,0,0,0,0
2025-03-31 15:42:09.180375,SERVO_OUTPUT_RAW,1500,1500,1500,1500,1500,1500,1500,1500,,,,,,,,,,,,,,,,,,,
2025-03-31 15:42:09.185529,RC_CHANNELS,,,,,,,,,1500,1500,1500,1498,1496,1503,1500,1500,1100,1100,1100,0,0,0,0,0,0,0,0
2025-03-31 15:42:09.679393,SERVO_OUTPUT_RAW,1500,1500,1500,1500,1500,1500,1500,1500,,,,,,,,,,,,,,,,,,,
2025-03-31 15:42:09.682962,RC_CHANNELS,,,,,,,,,1500,1500,1500,1498,1496,1503,1500,1500,1100,1100,1100,0,0,0,0,0,0,0,0
2025-03-31 15:42:10.179905,SERVO_OUTPUT_RAW,1500,1500,1500,1500,1500,1500,1500,1500,,,,,,,,,,,,,,,,,,,
2025-03-31 15:42:10.185193,RC_CHANNELS,,,,,,,,,1500,1500,1500,1498,1496,1503,1500,1500,1100,1100,1100,0,0,0,0,0,0,0,0
2025-03-31 15:42:10.679509,SERVO_OUTPUT_RAW,1500,1500,1500,1500,1500,1500,1500,1500,,,,,,,,,,,,,,,,,,,
2025-03-31 15:42:10.683489,RC_CHANNELS,,,,,,,,,1500,1500,1500,1498,1496,1503,1500,1500,1100,1100,1100,0,0,0,0,0,0,0,0
2025-03-31 15:42:11.178793,SERVO_OUTPUT_RAW,1500,1500,1500,1500,1500,1500,1500,1500,,,,,,,,,,,,,,,,,,,
2025-03-31 15:42:11.183883,RC_CHANNELS,,,,,,,,,1500,1500,1500,1498,1496,1503,1500,1500,1100,1100,1100,0,0,0,0,0,0,0,0
2025-03-31 15:42:11.679300,SERVO_OUTPUT_RAW,1500,1500,1500,1500,1500,1500,1500,1500,,,,,,,,,,,,,,,,,,,
2025-03-31 15:42:11.682835,RC_CHANNELS,,,,,,,,,1500,1500,1500,1498,1496,1503,1500,1500,1100,1100,1100,0,0,0,0,0,0,0,0
2025-03-31 15:42:12.179269,SERVO_OUTPUT_RAW,1500,1500,1500,1500,1500,1500,1500,1500,,,,,,,,,,,,,,,,,,,
2025-03-31 15:42:12.183058,RC_CHANNELS,,,,,,,,,1500,1500,1500,1498,1496,1503,1500,1500,1100,1100,1100,0,0,0,0,0,0,0,0
2025-03-31 15:42:12.682015,SERVO_OUTPUT_RAW,1500,1500,1500,1500,1500,1500,1500,1500,,,,,,,,,,,,,,,,,,,
2025-03-31 15:42:12.687117,RC_CHANNELS,,,,,,,,,1500,1500,1500,1498,1496,1503,1500,1500,1100,1100,1100,0,0,0,0,0,0,0,0
2025-03-31 15:42:13.179911,SERVO_OUTPUT_RAW,1500,1500,1500,1500,1500,1500,1500,1500,,,,,,,,,,,,,,,,,,,
2025-03-31 15:42:13.183393,RC_CHANNELS,,,,,,,,,1500,1500,1500,1498,1496,1503,1500,1500,1100,1100,1100,0,0,0,0,0,0,0,0
2025-03-31 15:42:13.679364,SERVO_OUTPUT_RAW,1500,1500,1500,1500,1500,1500,1500,1500,,,,,,,,,,,,,,,,,,,
2025-03-31 15:42:13.683040,RC_CHANNELS,,,,,,,,,1500,1500,1500,1498,1496,1503,1500,1500,1100,1100,1100,0,0,0,0,0,0,0,0
2025-03-31 15:42:14.179014,SERVO_OUTPUT_RAW,1500,1500,1500,1500,1500,1500,1500,1500,,,,,,,,,,,,,,,,,,,
2025-03-31 15:42:14.182609,RC_CHANNELS,,,,,,,,,1500,1500,1500,1498,1496,1503,1500,1500,1100,1100,1100,0,0,0,0,0,0,0,0
2025-03-31 15:42:14.693646,SERVO_OUTPUT_RAW,1500,1500,1500,1500,1500,1500,1500,1500,,,,,,,,,,,,,,,,,,,
2025-03-31 15:42:14.698774,RC_CHANNELS,,,,,,,,,1500,1500,1500,1498,1496,1503,1500,1500,1100,1100,1100,0,0,0,0,0,0,0,0
2025-03-31 15:42:15.178962,SERVO_OUTPUT_RAW,1500,1500,1500,1500,1500,1500,1500,1500,,,,,,,,,,,,,,,,,,,
2025-03-31 15:42:15.182619,RC_CHANNELS,,,,,,,,,1500,1500,1500,1498,1496,1503,1500,1500,1100,1100,1100,0,0,0,0,0,0,0,0
2025-03-31 15:42:15.679859,SERVO_OUTPUT_RAW,1500,1500,1500,1500,1500,1500,1500,1500,,,,,,,,,,,,,,,,,,,
2025-03-31 15:42:15.682659,RC_CHANNELS,,,,,,,,,1500,1500,1500,1498,1496,1503,1500,1500,1100,1100,1100,0,0,0,0,0,0,0,0
2025-03-31 15:42:16.178652,SERVO_OUTPUT_RAW,1500,1500,1500,1500,1500,1500,1500,1500,,,,,,,,,,,,,,,,,,,
2025-03-31 15:42:16.184126,RC_CHANNELS,,,,,,,,,1500,1500,1500,1498,1496,1503,1500,1500,1100,1100,1100,0,0,0,0,0,0,0,0
2025-03-31 15:42:16.679394,SERVO_OUTPUT_RAW,1500,1500,1500,1500,1500,1500,1500,1500,,,,,,,,,,,,,,,,,,,
2025-03-31 15:42:16.682916,RC_CHANNELS,,,,,,,,,1500,1500,1500,1498,1496,1503,1500,1500,1100,1100,1100,0,0,0,0,0,0,0,0
2025-03-31 15:42:17.180742,SERVO_OUTPUT_RAW,1500,1500,1500,1500,1500,1500,1500,1500,,,,,,,,,,,,,,,,,,,
2025-03-31 15:42:17.188391,RC_CHANNELS,,,,,,,,,1500,1500,1500,1498,1496,1503,1500,1500,1100,1100,1100,0,0,0,0,0,0,0,0
2025-03-31 15:42:17.679626,SERVO_OUTPUT_RAW,1500,1500,1500,1500,1500,1500,1500,1500,,,,,,,,,,,,,,,,,,,
2025-03-31 15:42:17.683402,RC_CHANNELS,,,,,,,,,1500,1500,1500,1498,1496,1503,1500,1500,1100,1100,1100,0,0,0,0,0,0,0,0
2025-03-31 15:42:18.178840,SERVO_OUTPUT_RAW,1500,1500,1500,1500,1500,1500,1500,1500,,,,,,,,,,,,,,,,,,,
2025-03-31 15:42:18.182350,RC_CHANNELS,,,,,,,,,1500,1500,1500,1498,1496,1503,1500,1500,1100,1100,1100,0,0,0,0,0,0,0,0
2025-03-31 15:42:18.678731,SERVO_OUTPUT_RAW,1500,1500,1500,1500,1500,1500,1500,1500,,,,,,,,,,,,,,,,,,,
2025-03-31 15:42:18.682106,RC_CHANNELS,,,,,,,,,1500,1500,1500,1498,1496,1503,1500,1500,1100,1100,1100,0,0,0,0,0,0,0,0
2025-03-31 15:42:19.179186,SERVO_OUTPUT_RAW,1500,1500,1500,1500,1500,1500,1500,1500,,,,,,,,,,,,,,,,,,,
2025-03-31 15:42:19.182642,RC_CHANNELS,,,,,,,,,1500,1500,1500,1498,1496,1503,1500,1500,1100,1100,1100,0,0,0,0,0,0,0,0
2025-03-31 15:42:19.679396,SERVO_OUTPUT_RAW,1500,1500,1500,1500,1500,1500,1500,1500,,,,,,,,,,,,,,,,,,,
2025-03-31 15:42:19.681971,RC_CHANNELS,,,,,,,,,1500,1500,1500,1498,1496,1503,1500,1500,1100,1100,1100,0,0,0,0,0,0,0,0
2025-03-31 15:42:20.179219,SERVO_OUTPUT_RAW,1500,1500,1500,1500,1500,1500,1500,1500,,,,,,,,,,,,,,,,,,,
2025-03-31 15:42:20.182832,RC_CHANNELS,,,,,,,,,1500,1500,1500,1498,1496,1503,1500,1500,1100,1100,1100,0,0,0,0,0,0,0,0
2025-03-31 15:42:20.680316,SERVO_OUTPUT_RAW,1500,1500,1500,1500,1500,1500,1500,1500,,,,,,,,,,,,,,,,,,,
2025-03-31 15:42:20.685957,RC_CHANNELS,,,,,,,,,1500,1500,1500,1498,1496,1503,1500,1500,1100,1100,1100,0,0,0,0,0,0,0,0
2025-03-31 15:42:21.178646,SERVO_OUTPUT_RAW,1500,1500,1500,1500,1500,1500,1500,1500,,,,,,,,,,,,,,,,,,,
2025-03-31 15:42:21.182310,RC_CHANNELS,,,,,,,,,1500,1500,1500,1498,1496,1503,1500,1500,1100,1100,1100,0,0,0,0,0,0,0,0
2025-03-31 15:42:21.693381,SERVO_OUTPUT_RAW,1500,1500,1500,1500,1500,1500,1500,1500,,,,,,,,,,,,,,,,,,,
2025-03-31 15:42:21.698766,RC_CHANNELS,,,,,,,,,1500,1500,1500,1498,1496,1503,1500,1500,1100,1100,1100,0,0,0,0,0,0,0,0
2025-03-31 15:42:22.179318,SERVO_OUTPUT_RAW,1500,1500,1500,1500,1500,1500,1500,1500,,,,,,,,,,,,,,,,,,,
2025-03-31 15:42:22.183010,RC_CHANNELS,,,,,,,,,1500,1500,1500,1498,1496,1503,1500,1500,1100,1100,1100,0,0,0,0,0,0,0,0
2025-03-31 15:42:22.687148,SERVO_OUTPUT_RAW,1500,1500,1500,1500,1500,1500,1500,1500,,,,,,,,,,,,,,,,,,,
2025-03-31 15:42:22.689550,RC_CHANNELS,,,,,,,,,1500,1500,1500,1498,1496,1503,1500,1500,1100,1100,1100,0,0,0,0,0,0,0,0
2025-03-31 15:42:23.179368,SERVO_OUTPUT_RAW,1500,1500,1500,1500,1500,1500,1500,1500,,,,,,,,,,,,,,,,,,,
2025-03-31 15:42:23.182968,RC_CHANNELS,,,,,,,,,1500,1500,1500,1498,1496,1503,1500,1500,1100,1100,1100,0,0,0,0,0,0,0,0
2025-03-31 15:42:23.679505,SERVO_OUTPUT_RAW,1500,1500,1500,1500,1500,1500,1500,1500,,,,,,,,,,,,,,,,,,,
2025-03-31 15:42:23.682333,RC_CHANNELS,,,,,,,,,1500,1500,1500,1498,1496,1503,1500,1500,1100,1100,1100,0,0,0,0,0,0,0,0
2025-03-31 15:42:24.178491,SERVO_OUTPUT_RAW,1500,1500,1500,1500,1500,1500,1500,1500,,,,,,,,,,,,,,,,,,,
2025-03-31 15:42:24.181874,RC_CHANNELS,,,,,,,,,1500,1500,1500,1498,1496,1503,1500,1500,1100,1100,1100,0,0,0,0,0,0,0,0
2025-03-31 15:42:24.678739,SERVO_OUTPUT_RAW,1500,1500,1500,1500,1500,1500,1500,1500,,,,,,,,,,,,,,,,,,,
2025-03-31 15:42:24.682088,RC_CHANNELS,,,,,,,,,1500,1500,1500,1498,1496,1503,1500,1500,1100,1100,1100,0,0,0,0,0,0,0,0
2025-03-31 15:42:25.180113,SERVO_OUTPUT_RAW,1500,1500,1500,1500,1500,1500,1500,1500,,,,,,,,,,,,,,,,,,,
2025-03-31 15:42:25.185014,RC_CHANNELS,,,,,,,,,1500,1500,1500,1498,1496,1503,1500,1500,1100,1100,1100,0,0,0,0,0,0,0,0
2025-03-31 15:42:25.679166,SERVO_OUTPUT_RAW,1500,1500,1500,1500,1500,1500,1500,1500,,,,,,,,,,,,,,,,,,,
2025-03-31 15:42:25.683052,RC_CHANNELS,,,,,,,,,1500,1500,1500,1498,1496,1503,1500,1500,1100,1100,1100,0,0,0,0,0,0,0,0
2025-03-31 15:42:26.178318,SERVO_OUTPUT_RAW,1500,1500,1500,1500,1500,1500,1500,1500,,,,,,,,,,,,,,,,,,,
2025-03-31 15:42:26.181810,RC_CHANNELS,,,,,,,,,1500,1500,1500,1498,1496,1503,1500,1500,1100,1100,1100,0,0,0,0,0,0,0,0
2025-03-31 15:42:26.678420,SERVO_OUTPUT_RAW,1500,1500,1500,1500,1500,1500,1500,1500,,,,,,,,,,,,,,,,,,,
2025-03-31 15:42:26.681913,RC_CHANNELS,,,,,,,,,1500,1500,1500,1498,1496,1503,1500,1500,1100,1100,1100,0,0,0,0,0,0,0,0
2025-03-31 15:42:27.179681,SERVO_OUTPUT_RAW,1500,1500,1500,1500,1500,1500,1500,1500,,,,,,,,,,,,,,,,,,,
2025-03-31 15:42:27.183189,RC_CHANNELS,,,,,,,,,1500,1500,1500,1498,1496,1503,1500,1500,1100,1100,1100,0,0,0,0,0,0,0,0
2025-03-31 15:42:27.678245,SERVO_OUTPUT_RAW,1500,1500,1500,1500,1500,1500,1500,1500,,,,,,,,,,,,,,,,,,,
2025-03-31 15:42:27.680791,RC_CHANNELS,,,,,,,,,1500,1500,1500,1498,1496,1503,1500,1500,1100,1100,1100,0,0,0,0,0,0,0,0
2025-03-31 15:42:28.179249,SERVO_OUTPUT_RAW,1500,1500,1500,1500,1500,1500,1500,1500,,,,,,,,,,,,,,,,,,,
2025-03-31 15:42:28.182893,RC_CHANNELS,,,,,,,,,1500,1500,1500,1498,1496,1503,1500,1500,1100,1100,1100,0,0,0,0,0,0,0,0
2025-03-31 15:42:28.679463,SERVO_OUTPUT_RAW,1500,1500,1500,1500,1500,1500,1500,1500,,,,,,,,,,,,,,,,,,,
2025-03-31 15:42:28.684542,RC_CHANNELS,,,,,,,,,1500,1500,1500,1498,1496,1503,1500,1500,1100,1100,1100,0,0,0,0,0,0,0,0
2025-03-31 15:42:29.179981,SERVO_OUTPUT_RAW,1500,1500,1500,1500,1500,1500,1500,1500,,,,,,,,,,,,,,,,,,,
2025-03-31 15:42:29.183789,RC_CHANNELS,,,,,,,,,1500,1500,1500,1498,1496,1503,1500,1500,1100,1100,1100,0,0,0,0,0,0,0,0
2025-03-31 15:42:29.688858,SERVO_OUTPUT_RAW,1500,1500,1500,1500,1500,1500,1500,1500,,,,,,,,,,,,,,,,,,,
2025-03-31 15:42:29.691621,RC_CHANNELS,,,,,,,,,1500,1500,1500,1498,1496,1503,1500,1500,1100,1100,1100,0,0,0,0,0,0,0,0
2025-03-31 15:42:30.178377,SERVO_OUTPUT_RAW,1500,1500,1500,1500,1500,1500,1500,1500,,,,,,,,,,,,,,,,,,,
2025-03-31 15:42:30.182025,RC_CHANNELS,,,,,,,,,1500,1500,1500,1498,1496,1503,1500,1500,1100,1100,1100,0,0,0,0,0,0,0,0
2025-03-31 15:42:30.687087,SERVO_OUTPUT_RAW,1500,1500,1500,1500,1500,1500,1500,1500,,,,,,,,,,,,,,,,,,,
2025-03-31 15:42:30.689708,RC_CHANNELS,,,,,,,,,1500,1500,1500,1498,1496,1503,1500,1500,1100,1100,1100,0,0,0,0,0,0,0,0
2025-03-31 15:42:31.178629,SERVO_OUTPUT_RAW,1500,1500,1500,1500,1500,1500,1500,1500,,,,,,,,,,,,,,,,,,,
2025-03-31 15:42:31.183759,RC_CHANNELS,,,,,,,,,1500,1500,1500,1498,1496,1503,1500,1500,1100,1100,1100,0,0,0,0,0,0,0,0
2025-03-31 15:42:31.683999,SERVO_OUTPUT_RAW,1500,1500,1500,1500,1500,1500,1500,1500,,,,,,,,,,,,,,,,,,,
2025-03-31 15:42:31.689025,RC_CHANNELS,,,,,,,,,1500,1500,1500,1498,1496,1503,1500,1500,1100,1100,1100,0,0,0,0,0,0,0,0
2025-03-31 15:42:32.179073,SERVO_OUTPUT_RAW,1500,1500,1500,1500,1500,1500,1500,1500,,,,,,,,,,,,,,,,,,,
2025-03-31 15:42:32.182916,RC_CHANNELS,,,,,,,,,1500,1500,1500,1498,1496,1503,1500,1500,1100,1100,1100,0,0,0,0,0,0,0,0
2025-03-31 15:42:32.682446,SERVO_OUTPUT_RAW,1500,1500,1500,1500,1500,1500,1500,1500,,,,,,,,,,,,,,,,,,,
2025-03-31 15:42:32.687904,RC_CHANNELS,,,,,,,,,1500,1500,1500,1498,1496,1503,1500,1500,1100,1100,1100,0,0,0,0,0,0,0,0
2025-03-31 15:42:33.179375,SERVO_OUTPUT_RAW,1500,1500,1500,1500,1500,1500,1500,1500,,,,,,,,,,,,,,,,,,,
2025-03-31 15:42:33.183314,RC_CHANNELS,,,,,,,,,1500,1500,1500,1498,1496,1503,1500,1500,1100,1100,1100,0,0,0,0,0,0,0,0
2025-03-31 15:42:33.680815,SERVO_OUTPUT_RAW,1500,1500,1500,1500,1500,1500,1500,1500,,,,,,,,,,,,,,,,,,,
2025-03-31 15:42:33.685861,RC_CHANNELS,,,,,,,,,1500,1500,1500,1498,1496,1503,1500,1500,1100,1100,1100,0,0,0,0,0,0,0,0
2025-03-31 15:42:34.178909,SERVO_OUTPUT_RAW,1500,1500,1500,1500,1500,1500,1500,1500,,,,,,,,,,,,,,,,,,,
2025-03-31 15:42:34.184127,RC_CHANNELS,,,,,,,,,1500,1500,1500,1498,1496,1503,1500,1500,1100,1100,1100,0,0,0,0,0,0,0,0
2025-03-31 15:42:34.680646,SERVO_OUTPUT_RAW,1500,1500,1500,1500,1500,1500,1500,1500,,,,,,,,,,,,,,,,,,,
2025-03-31 15:42:34.687532,RC_CHANNELS,,,,,,,,,1500,1500,1500,1498,1496,1503,1500,1500,1100,1100,1100,0,0,0,0,0,0,0,0
2025-03-31 15:42:35.181831,SERVO_OUTPUT_RAW,1500,1500,1500,1500,1500,1500,1500,1500,,,,,,,,,,,,,,,,,,,
2025-03-31 15:42:35.185312,RC_CHANNELS,,,,,,,,,1500,1500,1500,1498,1496,1503,1500,1500,1100,1100,1100,0,0,0,0,0,0,0,0
2025-03-31 15:42:35.680626,SERVO_OUTPUT_RAW,1500,1500,1500,1500,1500,1500,1500,1500,,,,,,,,,,,,,,,,,,,
2025-03-31 15:42:35.686568,RC_CHANNELS,,,,,,,,,1500,1500,1500,1498,1496,1503,1500,1500,1100,1100,1100,0,0,0,0,0,0,0,0
2025-03-31 15:42:36.178455,SERVO_OUTPUT_RAW,1500,1500,1500,1500,1500,1500,1500,1500,,,,,,,,,,,,,,,,,,,
2025-03-31 15:42:36.182347,RC_CHANNELS,,,,,,,,,1500,1500,1500,1498,1496,1503,1500,1500,1100,1100,1100,0,0,0,0,0,0,0,0
2025-03-31 15:42:36.677996,SERVO_OUTPUT_RAW,1500,1500,1500,1500,1500,1500,1500,1500,,,,,,,,,,,,,,,,,,,
2025-03-31 15:42:36.681599,RC_CHANNELS,,,,,,,,,1500,1500,1500,1498,1496,1503,1500,1500,1100,1100,1100,0,0,0,0,0,0,0,0
2025-03-31 15:42:47.679353,SERVO_OUTPUT_RAW,1500,1500,1500,1500,1500,1500,1500,1500,,,,,,,,,,,,,,,,,,,
2025-03-31 15:42:47.684406,RC_CHANNELS,,,,,,,,,1500,1500,1500,1498,1496,1503,1500,1500,1100,1100,1100,0,0,0,0,0,0,0,0
2025-03-31 15:42:48.179654,SERVO_OUTPUT_RAW,1500,1500,1500,1500,1500,1500,1500,1500,,,,,,,,,,,,,,,,,,,
2025-03-31 15:42:48.182992,RC_CHANNELS,,,,,,,,,1500,1500,1500,1498,1496,1503,1500,1500,1100,1100,1100,0,0,0,0,0,0,0,0
2025-03-31 15:42:48.677712,SERVO_OUTPUT_RAW,1500,1500,1500,1500,1500,1500,1500,1500,,,,,,,,,,,,,,,,,,,
2025-03-31 15:42:48.681160,RC_CHANNELS,,,,,,,,,1500,1500,1500,1498,1496,1503,1500,1500,1100,1100,1100,0,0,0,0,0,0,0,0
2025-03-31 15:42:49.179172,SERVO_OUTPUT_RAW,1500,1500,1500,1500,1500,1500,1500,1500,,,,,,,,,,,,,,,,,,,
2025-03-31 15:42:49.182652,RC_CHANNELS,,,,,,,,,1500,1500,1500,1498,1496,1503,1500,1500,1100,1100,1100,0,0,0,0,0,0,0,0
2025-03-31 15:42:49.677994,SERVO_OUTPUT_RAW,1500,1500,1500,1500,1500,1500,1500,1500,,,,,,,,,,,,,,,,,,,
2025-03-31 15:42:49.681472,RC_CHANNELS,,,,,,,,,1500,1500,1500,1498,1496,1503,1500,1500,1100,1100,1100,0,0,0,0,0,0,0,0
2025-03-31 15:42:50.179192,SERVO_OUTPUT_RAW,1500,1500,1500,1500,1500,1500,1500,1500,,,,,,,,,,,,,,,,,,,
2025-03-31 15:42:50.183201,RC_CHANNELS,,,,,,,,,1500,1500,1500,1498,1496,1503,1500,1500,1100,1100,1100,0,0,0,0,0,0,0,0
2025-03-31 15:42:50.678962,SERVO_OUTPUT_RAW,1500,1500,1500,1500,1500,1500,1500,1500,,,,,,,,,,,,,,,,,,,
2025-03-31 15:42:50.681563,RC_CHANNELS,,,,,,,,,1500,1500,1500,1498,1496,1503,1500,1500,1100,1100,1100,0,0,0,0,0,0,0,0
2025-03-31 15:42:51.179262,SERVO_OUTPUT_RAW,1500,1500,1500,1500,1500,1500,1500,1500,,,,,,,,,,,,,,,,,,,
2025-03-31 15:42:51.183399,RC_CHANNELS,,,,,,,,,1500,1500,1500,1498,1496,1503,1500,1500,1100,1100,1100,0,0,0,0,0,0,0,0
2025-03-31 15:42:51.678759,SERVO_OUTPUT_RAW,1500,1500,1500,1500,1500,1500,1500,1500,,,,,,,,,,,,,,,,,,,
2025-03-31 15:42:51.682323,RC_CHANNELS,,,,,,,,,1500,1500,1500,1498,1496,1503,1500,1500,1100,1100,1100,0,0,0,0,0,0,0,0
2025-03-31 15:42:52.178631,SERVO_OUTPUT_RAW,1500,1500,1500,1500,1500,1500,1500,1500,,,,,,,,,,,,,,,,,,,
2025-03-31 15:42:52.181160,RC_CHANNELS,,,,,,,,,1500,1500,1500,1498,1496,1503,1500,1500,1100,1100,1100,0,0,0,0,0,0,0,0
2025-03-31 15:42:52.681638,SERVO_OUTPUT_RAW,1500,1500,1500,1500,1500,1500,1500,1500,,,,,,,,,,,,,,,,,,,
2025-03-31 15:42:52.686593,RC_CHANNELS,,,,,,,,,1500,1500,1500,1498,1496,1503,1500,1500,1100,1100,1100,0,0,0,0,0,0,0,0
2025-03-31 15:42:53.178432,SERVO_OUTPUT_RAW,1500,1500,1500,1500,1500,1500,1500,1500,,,,,,,,,,,,,,,,,,,
2025-03-31 15:42:53.181891,RC_CHANNELS,,,,,,,,,1500,1500,1500,1498,1496,1503,1500,1500,1100,1100,1100,0,0,0,0,0,0,0,0
2025-03-31 15:42:53.693176,SERVO_OUTPUT_RAW,1500,1500,1500,1500,1500,1500,1500,1500,,,,,,,,,,,,,,,,,,,
2025-03-31 15:42:53.698176,RC_CHANNELS,,,,,,,,,1500,1500,1500,1498,1496,1503,1500,1500,1100,1100,1100,0,0,0,0,0,0,0,0
2025-03-31 15:42:54.178741,SERVO_OUTPUT_RAW,1500,1500,1500,1500,1500,1500,1500,1500,,,,,,,,,,,,,,,,,,,
2025-03-31 15:42:54.182282,RC_CHANNELS,,,,,,,,,1500,1500,1500,1498,1496,1503,1500,1500,1100,1100,1100,0,0,0,0,0,0,0,0
2025-03-31 15:42:54.687201,SERVO_OUTPUT_RAW,1500,1500,1500,1500,1500,1500,1500,1500,,,,,,,,,,,,,,,,,,,
2025-03-31 15:42:54.692867,RC_CHANNELS,,,,,,,,,1500,1500,1500,1498,1496,1503,1500,1500,1100,1100,1100,0,0,0,0,0,0,0,0
2025-03-31 15:42:55.179085,SERVO_OUTPUT_RAW,1500,1500,1500,1500,1500,1500,1500,1500,,,,,,,,,,,,,,,,,,,
2025-03-31 15:42:55.182667,RC_CHANNELS,,,,,,,,,1500,1500,1500,1498,1496,1503,1500,1500,1100,1100,1100,0,0,0,0,0,0,0,0
2025-03-31 15:42:55.680990,SERVO_OUTPUT_RAW,1500,1500,1500,1500,1500,1500,1500,1500,,,,,,,,,,,,,,,,,,,
2025-03-31 15:42:55.686087,RC_CHANNELS,,,,,,,,,1500,1500,1500,1498,1496,1503,1500,1500,1100,1100,1100,0,0,0,0,0,0,0,0
2025-03-31 15:42:56.177938,SERVO_OUTPUT_RAW,1500,1500,1500,1500,1500,1500,1500,1500,,,,,,,,,,,,,,,,,,,
2025-03-31 15:42:56.181993,RC_CHANNELS,,,,,,,,,1500,1500,1500,1498,1496,1503,1500,1500,1100,1100,1100,0,0,0,0,0,0,0,0
2025-03-31 15:42:56.678728,SERVO_OUTPUT_RAW,1500,1500,1500,1500,1500,1500,1500,1500,,,,,,,,,,,,,,,,,,,
2025-03-31 15:42:56.681877,RC_CHANNELS,,,,,,,,,1500,1500,1500,1498,1496,1503,1500,1500,1100,1100,1100,0,0,0,0,0,0,0,0
2025-03-31 15:42:57.178113,SERVO_OUTPUT_RAW,1500,1500,1500,1500,1500,1500,1500,1500,,,,,,,,,,,,,,,,,,,
2025-03-31 15:42:57.182838,RC_CHANNELS,,,,,,,,,1500,1500,1500,1498,1496,1503,1500,1500,1100,1100,1100,0,0,0,0,0,0,0,0
2025-03-31 15:42:57.679800,SERVO_OUTPUT_RAW,1500,1500,1500,1500,1500,1500,1500,1500,,,,,,,,,,,,,,,,,,,
2025-03-31 15:42:57.685128,RC_CHANNELS,,,,,,,,,1500,1500,1500,1498,1496,1503,1500,1500,1100,1100,1100,0,0,0,0,0,0,0,0
2025-03-31 15:42:58.178768,SERVO_OUTPUT_RAW,1500,1500,1500,1500,1500,1500,1500,1500,,,,,,,,,,,,,,,,,,,
2025-03-31 15:42:58.184443,RC_CHANNELS,,,,,,,,,1500,1500,1500,1498,1496,1503,1500,1500,1100,1100,1100,0,0,0,0,0,0,0,0
2025-03-31 15:42:58.678572,SERVO_OUTPUT_RAW,1500,1500,1500,1500,1500,1500,1500,1500,,,,,,,,,,,,,,,,,,,
2025-03-31 15:42:58.682329,RC_CHANNELS,,,,,,,,,1500,1500,1500,1498,1496,1503,1500,1500,1100,1100,1100,0,0,0,0,0,0,0,0
2025-03-31 15:42:59.178006,SERVO_OUTPUT_RAW,1500,1500,1500,1500,1500,1500,1500,1500,,,,,,,,,,,,,,,,,,,
2025-03-31 15:42:59.182153,RC_CHANNELS,,,,,,,,,1500,1500,1500,1498,1496,1503,1500,1500,1100,1100,1100,0,0,0,0,0,0,0,0
2025-03-31 15:42:59.677877,SERVO_OUTPUT_RAW,1500,1500,1500,1500,1500,1500,1500,1500,,,,,,,,,,,,,,,,,,,
2025-03-31 15:42:59.681621,RC_CHANNELS,,,,,,,,,1500,1500,1500,1498,1496,1503,1500,1500,1100,1100,1100,0,0,0,0,0,0,0,0
2025-03-31 15:43:00.179032,SERVO_OUTPUT_RAW,1500,1500,1500,1500,1500,1500,1500,1500,,,,,,,,,,,,,,,,,,,
2025-03-31 15:43:00.185884,RC_CHANNELS,,,,,,,,,1500,1500,1500,1498,1496,1503,1500,1500,1100,1100,1100,0,0,0,0,0,0,0,0
2025-03-31 15:43:00.677797,SERVO_OUTPUT_RAW,1500,1500,1500,1500,1500,1500,1500,1500,,,,,,,,,,,,,,,,,,,
2025-03-31 15:43:00.681212,RC_CHANNELS,,,,,,,,,1500,1500,1500,1498,1496,1503,1500,1500,1100,1100,1100,0,0,0,0,0,0,0,0
2025-03-31 15:43:01.178552,SERVO_OUTPUT_RAW,1500,1500,1500,1500,1500,1500,1500,1500,,,,,,,,,,,,,,,,,,,
2025-03-31 15:43:01.185023,RC_CHANNELS,,,,,,,,,1500,1500,1500,1498,1496,1503,1500,1500,1100,1100,1100,0,0,0,0,0,0,0,0
2025-03-31 15:43:01.690773,SERVO_OUTPUT_RAW,1500,1500,1500,1500,1500,1500,1500,1500,,,,,,,,,,,,,,,,,,,
2025-03-31 15:43:01.696232,RC_CHANNELS,,,,,,,,,1500,1500,1500,1498,1496,1503,1500,1500,1100,1100,1100,0,0,0,0,0,0,0,0
2025-03-31 15:43:02.178863,SERVO_OUTPUT_RAW,1500,1500,1500,1500,1500,1500,1500,1500,,,,,,,,,,,,,,,,,,,
2025-03-31 15:43:02.182548,RC_CHANNELS,,,,,,,,,1500,1500,1500,1498,1496,1503,1500,1500,1100,1100,1100,0,0,0,0,0,0,0,0
2025-03-31 15:43:02.687918,SERVO_OUTPUT_RAW,1500,1500,1500,1500,1500,1500,1500,1500,,,,,,,,,,,,,,,,,,,
2025-03-31 15:43:02.690269,RC_CHANNELS,,,,,,,,,1500,1500,1500,1498,1496,1503,1500,1500,1100,1100,1100,0,0,0,0,0,0,0,0
