timestamp,message_type,servo1_raw,servo2_raw,servo3_raw,servo4_raw,servo5_raw,servo6_raw,servo7_raw,servo8_raw,rc1_raw,rc2_raw,rc3_raw,rc4_raw,rc5_raw,rc6_raw,rc7_raw,rc8_raw,rc9_raw,rc10_raw,rc11_raw,rc12_raw,rc13_raw,rc14_raw,rc15_raw,rc16_raw,rc17_raw,rc18_raw,rssi
2025-03-31 15:48:14.057018,SERVO_OUTPUT_RAW,1426,1560,1430,1436,1499,1499,1501,1499,,,,,,,,,,,,,,,,,,,
2025-03-31 15:48:14.062722,RC_CHANNELS,,,,,,,,,1500,1500,1501,1495,1567,1498,1500,1500,1100,1100,1100,0,0,0,0,0,0,0,0
2025-03-31 15:48:14.563441,SERVO_OUTPUT_RAW,1426,1560,1430,1436,1499,1499,1501,1499,,,,,,,,,,,,,,,,,,,
2025-03-31 15:48:14.567080,RC_CHANNELS,,,,,,,,,1500,1500,1501,1495,1567,1498,1500,1500,1100,1100,1100,0,0,0,0,0,0,0,0
2025-03-31 15:48:15.084352,SERVO_OUTPUT_RAW,1426,1560,1430,1436,1499,1499,1501,1499,,,,,,,,,,,,,,,,,,,
2025-03-31 15:48:15.088055,RC_CHANNELS,,,,,,,,,1500,1500,1501,1495,1567,1498,1500,1500,1100,1100,1100,0,0,0,0,0,0,0,0
2025-03-31 15:48:15.603981,SERVO_OUTPUT_RAW,1426,1560,1430,1436,1499,1499,1501,1499,,,,,,,,,,,,,,,,,,,
2025-03-31 15:48:15.607546,RC_CHANNELS,,,,,,,,,1500,1500,1501,1495,1567,1498,1500,1500,1100,1100,1100,0,0,0,0,0,0,0,0
2025-03-31 15:48:16.104085,SERVO_OUTPUT_RAW,1432,1554,1436,1442,1499,1499,1501,1499,,,,,,,,,,,,,,,,,,,
2025-03-31 15:48:16.106436,RC_CHANNELS,,,,,,,,,1500,1500,1501,1495,1561,1498,1500,1500,1100,1100,1100,0,0,0,0,0,0,0,0
2025-03-31 15:48:16.608052,SERVO_OUTPUT_RAW,1442,1550,1440,1452,1499,1499,1501,1499,,,,,,,,,,,,,,,,,,,
2025-03-31 15:48:16.613419,RC_CHANNELS,,,,,,,,,1500,1500,1501,1495,1554,1501,1500,1500,1100,1100,1100,0,0,0,0,0,0,0,0
2025-03-31 15:48:17.123068,SERVO_OUTPUT_RAW,1496,1508,1482,1506,1499,1499,1501,1499,,,,,,,,,,,,,,,,,,,
2025-03-31 15:48:17.126549,RC_CHANNELS,,,,,,,,,1500,1500,1501,1495,1504,1507,1500,1500,1100,1100,1100,0,0,0,0,0,0,0,0
2025-03-31 15:48:17.622578,SERVO_OUTPUT_RAW,1485,1507,1483,1495,1499,1499,1501,1499,,,,,,,,,,,,,,,,,,,
2025-03-31 15:48:17.625948,RC_CHANNELS,,,,,,,,,1500,1500,1501,1495,1512,1501,1500,1500,1100,1100,1100,0,0,0,0,0,0,0,0
2025-03-31 15:48:18.144368,SERVO_OUTPUT_RAW,1476,1516,1474,1486,1499,1499,1501,1499,,,,,,,,,,,,,,,,,,,
2025-03-31 15:48:18.149664,RC_CHANNELS,,,,,,,,,1500,1500,1501,1495,1520,1501,1500,1500,1100,1100,1100,0,0,0,0,0,0,0,0
2025-03-31 15:48:18.642649,SERVO_OUTPUT_RAW,1451,1541,1449,1461,1499,1499,1501,1499,,,,,,,,,,,,,,,,,,,
2025-03-31 15:48:18.646433,RC_CHANNELS,,,,,,,,,1500,1500,1501,1495,1547,1501,1500,1500,1100,1100,1100,0,0,0,0,0,0,0,0
2025-03-31 15:48:19.163350,SERVO_OUTPUT_RAW,1445,1547,1443,1455,1499,1499,1501,1499,,,,,,,,,,,,,,,,,,,
2025-03-31 15:48:19.166690,RC_CHANNELS,,,,,,,,,1500,1500,1501,1495,1551,1501,1500,1500,1100,1100,1100,0,0,0,0,0,0,0,0
2025-03-31 15:48:19.662513,SERVO_OUTPUT_RAW,1445,1547,1443,1455,1499,1499,1501,1499,,,,,,,,,,,,,,,,,,,
2025-03-31 15:48:19.666410,RC_CHANNELS,,,,,,,,,1500,1500,1501,1495,1551,1501,1500,1500,1100,1100,1100,0,0,0,0,0,0,0,0
2025-03-31 15:48:20.162130,SERVO_OUTPUT_RAW,1445,1547,1443,1455,1499,1499,1501,1499,,,,,,,,,,,,,,,,,,,
2025-03-31 15:48:20.165626,RC_CHANNELS,,,,,,,,,1500,1500,1501,1495,1551,1501,1500,1500,1100,1100,1100,0,0,0,0,0,0,0,0
2025-03-31 15:48:20.664530,SERVO_OUTPUT_RAW,1445,1547,1443,1455,1499,1499,1501,1499,,,,,,,,,,,,,,,,,,,
2025-03-31 15:48:20.667205,RC_CHANNELS,,,,,,,,,1500,1500,1501,1495,1551,1501,1500,1500,1100,1100,1100,0,0,0,0,0,0,0,0
2025-03-31 15:48:21.162847,SERVO_OUTPUT_RAW,1445,1547,1443,1455,1499,1499,1501,1499,,,,,,,,,,,,,,,,,,,
2025-03-31 15:48:21.166136,RC_CHANNELS,,,,,,,,,1500,1500,1501,1495,1551,1501,1500,1500,1100,1100,1100,0,0,0,0,0,0,0,0
2025-03-31 15:48:21.663143,SERVO_OUTPUT_RAW,1445,1547,1443,1455,1499,1499,1501,1499,,,,,,,,,,,,,,,,,,,
2025-03-31 15:48:21.666834,RC_CHANNELS,,,,,,,,,1500,1500,1501,1495,1551,1501,1500,1500,1100,1100,1100,0,0,0,0,0,0,0,0
2025-03-31 15:48:22.162466,SERVO_OUTPUT_RAW,1445,1547,1443,1455,1499,1499,1501,1499,,,,,,,,,,,,,,,,,,,
2025-03-31 15:48:22.165880,RC_CHANNELS,,,,,,,,,1500,1500,1501,1495,1551,1501,1500,1500,1100,1100,1100,0,0,0,0,0,0,0,0
2025-03-31 15:48:22.682487,SERVO_OUTPUT_RAW,1445,1547,1443,1455,1499,1499,1501,1499,,,,,,,,,,,,,,,,,,,
2025-03-31 15:48:22.685505,RC_CHANNELS,,,,,,,,,1500,1500,1501,1495,1551,1501,1500,1500,1100,1100,1100,0,0,0,0,0,0,0,0
2025-03-31 15:48:23.184312,SERVO_OUTPUT_RAW,1445,1547,1443,1455,1499,1499,1501,1499,,,,,,,,,,,,,,,,,,,
2025-03-31 15:48:23.189138,RC_CHANNELS,,,,,,,,,1500,1500,1501,1495,1551,1501,1500,1500,1100,1100,1100,0,0,0,0,0,0,0,0
2025-03-31 15:48:23.682139,SERVO_OUTPUT_RAW,1445,1547,1443,1455,1499,1499,1501,1499,,,,,,,,,,,,,,,,,,,
2025-03-31 15:48:23.685907,RC_CHANNELS,,,,,,,,,1500,1500,1501,1495,1551,1501,1500,1500,1100,1100,1100,0,0,0,0,0,0,0,0
2025-03-31 15:48:24.183628,SERVO_OUTPUT_RAW,1445,1547,1443,1455,1499,1499,1501,1499,,,,,,,,,,,,,,,,,,,
2025-03-31 15:48:24.188516,RC_CHANNELS,,,,,,,,,1500,1500,1501,1495,1551,1501,1500,1500,1100,1100,1100,0,0,0,0,0,0,0,0
2025-03-31 15:48:24.684528,SERVO_OUTPUT_RAW,1445,1547,1443,1455,1499,1499,1501,1499,,,,,,,,,,,,,,,,,,,
2025-03-31 15:48:24.687245,RC_CHANNELS,,,,,,,,,1500,1500,1501,1495,1551,1501,1500,1500,1100,1100,1100,0,0,0,0,0,0,0,0
2025-03-31 15:48:25.184158,SERVO_OUTPUT_RAW,1445,1547,1443,1455,1499,1499,1501,1499,,,,,,,,,,,,,,,,,,,
2025-03-31 15:48:25.189308,RC_CHANNELS,,,,,,,,,1500,1500,1501,1495,1551,1501,1500,1500,1100,1100,1100,0,0,0,0,0,0,0,0
2025-03-31 15:48:25.682678,SERVO_OUTPUT_RAW,1445,1547,1443,1455,1499,1499,1501,1499,,,,,,,,,,,,,,,,,,,
2025-03-31 15:48:25.686443,RC_CHANNELS,,,,,,,,,1500,1500,1501,1495,1551,1501,1500,1500,1100,1100,1100,0,0,0,0,0,0,0,0
2025-03-31 15:48:26.182051,SERVO_OUTPUT_RAW,1445,1547,1443,1455,1499,1499,1501,1499,,,,,,,,,,,,,,,,,,,
2025-03-31 15:48:26.185726,RC_CHANNELS,,,,,,,,,1500,1500,1501,1495,1551,1501,1500,1500,1100,1100,1100,0,0,0,0,0,0,0,0
2025-03-31 15:48:26.685573,SERVO_OUTPUT_RAW,1445,1547,1443,1455,1499,1499,1501,1499,,,,,,,,,,,,,,,,,,,
2025-03-31 15:48:26.689132,RC_CHANNELS,,,,,,,,,1500,1500,1501,1495,1551,1501,1500,1500,1100,1100,1100,0,0,0,0,0,0,0,0
2025-03-31 15:48:27.183347,SERVO_OUTPUT_RAW,1445,1547,1443,1455,1499,1499,1501,1499,,,,,,,,,,,,,,,,,,,
2025-03-31 15:48:27.187647,RC_CHANNELS,,,,,,,,,1500,1500,1501,1495,1551,1501,1500,1500,1100,1100,1100,0,0,0,0,0,0,0,0
2025-03-31 15:48:27.687933,SERVO_OUTPUT_RAW,1445,1547,1443,1455,1499,1499,1501,1499,,,,,,,,,,,,,,,,,,,
2025-03-31 15:48:27.694361,RC_CHANNELS,,,,,,,,,1500,1500,1501,1495,1551,1501,1500,1500,1100,1100,1100,0,0,0,0,0,0,0,0
2025-03-31 15:48:28.182097,SERVO_OUTPUT_RAW,1446,1546,1444,1456,1499,1499,1501,1499,,,,,,,,,,,,,,,,,,,
2025-03-31 15:48:28.185872,RC_CHANNELS,,,,,,,,,1500,1500,1501,1495,1550,1501,1500,1500,1100,1100,1100,0,0,0,0,0,0,0,0
2025-03-31 15:48:28.684515,SERVO_OUTPUT_RAW,1443,1543,1441,1459,1499,1499,1501,1499,,,,,,,,,,,,,,,,,,,
2025-03-31 15:48:28.701702,RC_CHANNELS,,,,,,,,,1500,1500,1501,1492,1550,1501,1500,1500,1100,1100,1100,0,0,0,0,0,0,0,0
2025-03-31 15:48:29.201914,SERVO_OUTPUT_RAW,1443,1535,1441,1467,1499,1499,1501,1499,,,,,,,,,,,,,,,,,,,
2025-03-31 15:48:29.205369,RC_CHANNELS,,,,,,,,,1500,1500,1501,1488,1545,1501,1500,1500,1100,1100,1100,0,0,0,0,0,0,0,0
2025-03-31 15:48:29.724355,SERVO_OUTPUT_RAW,1476,1480,1464,1532,1496,1496,1504,1496,,,,,,,,,,,,,,,,,,,
2025-03-31 15:48:29.730589,RC_CHANNELS,,,,,,,,,1500,1500,1506,1469,1502,1506,1500,1500,1100,1100,1100,0,0,0,0,0,0,0,0
2025-03-31 15:48:30.222903,SERVO_OUTPUT_RAW,1435,1439,1423,1573,1488,1488,1512,1488,,,,,,,,,,,,,,,,,,,
2025-03-31 15:48:30.225176,RC_CHANNELS,,,,,,,,,1500,1500,1514,1418,1502,1506,1500,1500,1100,1100,1100,0,0,0,0,0,0,0,0
2025-03-31 15:48:30.724113,SERVO_OUTPUT_RAW,1304,1308,1292,1704,1480,1480,1520,1480,,,,,,,,,,,,,,,,,,,
2025-03-31 15:48:30.728991,RC_CHANNELS,,,,,,,,,1500,1500,1520,1300,1502,1506,1500,1500,1100,1100,1100,0,0,0,0,0,0,0,0
2025-03-31 15:48:31.223751,SERVO_OUTPUT_RAW,1504,1488,1504,1512,1501,1501,1499,1501,,,,,,,,,,,,,,,,,,,
2025-03-31 15:48:31.227470,RC_CHANNELS,,,,,,,,,1500,1500,1499,1496,1492,1500,1500,1500,1100,1100,1100,0,0,0,0,0,0,0,0
2025-03-31 15:48:31.727110,SERVO_OUTPUT_RAW,1487,1507,1485,1495,1502,1502,1498,1502,,,,,,,,,,,,,,,,,,,
2025-03-31 15:48:31.732466,RC_CHANNELS,,,,,,,,,1500,1500,1498,1496,1510,1501,1500,1500,1100,1100,1100,0,0,0,0,0,0,0,0
2025-03-31 15:48:32.244179,SERVO_OUTPUT_RAW,1490,1502,1490,1498,1502,1502,1498,1502,,,,,,,,,,,,,,,,,,,
2025-03-31 15:48:32.247844,RC_CHANNELS,,,,,,,,,1500,1500,1498,1496,1506,1500,1500,1500,1100,1100,1100,0,0,0,0,0,0,0,0
2025-03-31 15:48:32.763159,SERVO_OUTPUT_RAW,1485,1507,1485,1493,1502,1502,1498,1502,,,,,,,,,,,,,,,,,,,
2025-03-31 15:48:32.766763,RC_CHANNELS,,,,,,,,,1500,1500,1498,1496,1510,1500,1500,1500,1100,1100,1100,0,0,0,0,0,0,0,0
2025-03-31 15:48:33.288503,SERVO_OUTPUT_RAW,1492,1506,1492,1494,1354,1354,1646,1354,,,,,,,,,,,,,,,,,,,
2025-03-31 15:48:33.292088,RC_CHANNELS,,,,,,,,,1500,1500,1660,1499,1507,1500,1500,1500,1100,1100,1100,0,0,0,0,0,0,0,0
2025-03-31 15:48:33.788811,SERVO_OUTPUT_RAW,1492,1506,1492,1494,1300,1300,1700,1300,,,,,,,,,,,,,,,,,,,
2025-03-31 15:48:33.791404,RC_CHANNELS,,,,,,,,,1500,1500,1700,1499,1507,1500,1500,1500,1100,1100,1100,0,0,0,0,0,0,0,0
2025-03-31 15:48:34.288750,SERVO_OUTPUT_RAW,1492,1506,1492,1494,1300,1300,1700,1300,,,,,,,,,,,,,,,,,,,
2025-03-31 15:48:34.291973,RC_CHANNELS,,,,,,,,,1500,1500,1700,1499,1507,1500,1500,1500,1100,1100,1100,0,0,0,0,0,0,0,0
2025-03-31 15:48:34.795941,SERVO_OUTPUT_RAW,1492,1506,1492,1494,1300,1300,1700,1300,,,,,,,,,,,,,,,,,,,
2025-03-31 15:48:34.803573,RC_CHANNELS,,,,,,,,,1500,1500,1700,1499,1507,1500,1500,1500,1100,1100,1100,0,0,0,0,0,0,0,0
2025-03-31 15:48:35.289183,SERVO_OUTPUT_RAW,1490,1508,1490,1492,1323,1323,1677,1323,,,,,,,,,,,,,,,,,,,
2025-03-31 15:48:35.291719,RC_CHANNELS,,,,,,,,,1500,1500,1669,1499,1509,1500,1500,1500,1100,1100,1100,0,0,0,0,0,0,0,0
2025-03-31 15:48:35.795570,SERVO_OUTPUT_RAW,1486,1510,1486,1490,1495,1495,1505,1495,,,,,,,,,,,,,,,,,,,
2025-03-31 15:48:35.797759,RC_CHANNELS,,,,,,,,,1500,1500,1510,1498,1512,1500,1500,1500,1100,1100,1100,0,0,0,0,0,0,0,0
2025-03-31 15:48:36.289377,SERVO_OUTPUT_RAW,1471,1495,1471,1505,1321,1321,1679,1321,,,,,,,,,,,,,,,,,,,
2025-03-31 15:48:36.304408,RC_CHANNELS,,,,,,,,,1500,1500,1684,1483,1512,1500,1500,1500,1100,1100,1100,0,0,0,0,0,0,0,0
2025-03-31 15:48:36.792481,SERVO_OUTPUT_RAW,1471,1495,1471,1505,1300,1300,1700,1300,,,,,,,,,,,,,,,,,,,
2025-03-31 15:48:36.792623,RC_CHANNELS,,,,,,,,,1500,1500,1700,1483,1512,1500,1500,1500,1100,1100,1100,0,0,0,0,0,0,0,0
2025-03-31 15:48:37.286949,SERVO_OUTPUT_RAW,1484,1508,1484,1492,1500,1500,1500,1500,,,,,,,,,,,,,,,,,,,
2025-03-31 15:48:37.289618,RC_CHANNELS,,,,,,,,,1500,1500,1500,1496,1512,1500,1500,1500,1100,1100,1100,0,0,0,0,0,0,0,0
2025-03-31 15:48:37.801723,SERVO_OUTPUT_RAW,1490,1514,1490,1486,1300,1300,1700,1300,,,,,,,,,,,,,,,,,,,
2025-03-31 15:48:37.810071,RC_CHANNELS,,,,,,,,,1500,1500,1700,1502,1512,1500,1500,1500,1100,1100,1100,0,0,0,0,0,0,0,0
2025-03-31 15:48:38.288815,SERVO_OUTPUT_RAW,1490,1514,1490,1486,1300,1300,1700,1300,,,,,,,,,,,,,,,,,,,
2025-03-31 15:48:38.291443,RC_CHANNELS,,,,,,,,,1500,1500,1700,1502,1512,1500,1500,1500,1100,1100,1100,0,0,0,0,0,0,0,0
2025-03-31 15:48:38.788709,SERVO_OUTPUT_RAW,1482,1510,1482,1490,1500,1500,1500,1500,,,,,,,,,,,,,,,,,,,
2025-03-31 15:48:38.791601,RC_CHANNELS,,,,,,,,,1500,1500,1500,1496,1514,1500,1500,1500,1100,1100,1100,0,0,0,0,0,0,0,0
2025-03-31 15:48:39.302246,SERVO_OUTPUT_RAW,1477,1507,1477,1493,1384,1384,1616,1384,,,,,,,,,,,,,,,,,,,
2025-03-31 15:48:39.305932,RC_CHANNELS,,,,,,,,,1500,1500,1636,1492,1515,1500,1500,1500,1100,1100,1100,0,0,0,0,0,0,0,0
2025-03-31 15:48:39.826355,SERVO_OUTPUT_RAW,1480,1506,1478,1496,1300,1300,1700,1300,,,,,,,,,,,,,,,,,,,
2025-03-31 15:48:39.831506,RC_CHANNELS,,,,,,,,,1500,1500,1700,1492,1513,1501,1500,1500,1100,1100,1100,0,0,0,0,0,0,0,0
2025-03-31 15:48:40.362345,SERVO_OUTPUT_RAW,1480,1514,1472,1494,1497,1497,1503,1497,,,,,,,,,,,,,,,,,,,
2025-03-31 15:48:40.366255,RC_CHANNELS,,,,,,,,,1500,1500,1501,1493,1517,1504,1500,1500,1100,1100,1100,0,0,0,0,0,0,0,0
2025-03-31 15:48:40.863872,SERVO_OUTPUT_RAW,1461,1533,1453,1475,1500,1500,1500,1500,,,,,,,,,,,,,,,,,,,
2025-03-31 15:48:40.867616,RC_CHANNELS,,,,,,,,,1500,1500,1500,1493,1545,1506,1500,1500,1100,1100,1100,0,0,0,0,0,0,0,0
2025-03-31 15:48:41.374848,SERVO_OUTPUT_RAW,1329,1677,1309,1343,1500,1500,1500,1500,,,,,,,,,,,,,,,,,,,
2025-03-31 15:48:41.377886,RC_CHANNELS,,,,,,,,,1500,1500,1500,1493,1700,1508,1500,1500,1100,1100,1100,0,0,0,0,0,0,0,0
2025-03-31 15:48:41.867900,SERVO_OUTPUT_RAW,1297,1697,1289,1311,1500,1500,1500,1500,,,,,,,,,,,,,,,,,,,
2025-03-31 15:48:41.869452,RC_CHANNELS,,,,,,,,,1500,1500,1500,1493,1700,1504,1500,1500,1100,1100,1100,0,0,0,0,0,0,0,0
2025-03-31 15:48:42.362821,SERVO_OUTPUT_RAW,1297,1697,1289,1311,1500,1500,1500,1500,,,,,,,,,,,,,,,,,,,
2025-03-31 15:48:42.366150,RC_CHANNELS,,,,,,,,,1500,1500,1500,1493,1700,1504,1500,1500,1100,1100,1100,0,0,0,0,0,0,0,0
2025-03-31 15:48:42.876390,SERVO_OUTPUT_RAW,1298,1698,1290,1310,1500,1500,1500,1500,,,,,,,,,,,,,,,,,,,
2025-03-31 15:48:42.878821,RC_CHANNELS,,,,,,,,,1500,1500,1500,1494,1700,1504,1500,1500,1100,1100,1100,0,0,0,0,0,0,0,0
2025-03-31 15:48:43.383414,SERVO_OUTPUT_RAW,1298,1698,1290,1310,1500,1500,1500,1500,,,,,,,,,,,,,,,,,,,
2025-03-31 15:48:43.388353,RC_CHANNELS,,,,,,,,,1500,1500,1500,1494,1700,1504,1500,1500,1100,1100,1100,0,0,0,0,0,0,0,0
2025-03-31 15:48:43.868934,SERVO_OUTPUT_RAW,1298,1698,1290,1310,1500,1500,1500,1500,,,,,,,,,,,,,,,,,,,
2025-03-31 15:48:43.872009,RC_CHANNELS,,,,,,,,,1500,1500,1500,1494,1700,1504,1500,1500,1100,1100,1100,0,0,0,0,0,0,0,0
2025-03-31 15:48:44.382776,SERVO_OUTPUT_RAW,1298,1698,1290,1310,1500,1500,1500,1500,,,,,,,,,,,,,,,,,,,
2025-03-31 15:48:44.386274,RC_CHANNELS,,,,,,,,,1500,1500,1500,1494,1700,1504,1500,1500,1100,1100,1100,0,0,0,0,0,0,0,0
2025-03-31 15:48:44.901754,SERVO_OUTPUT_RAW,1298,1698,1290,1310,1500,1500,1500,1500,,,,,,,,,,,,,,,,,,,
2025-03-31 15:48:44.905318,RC_CHANNELS,,,,,,,,,1500,1500,1500,1494,1700,1504,1500,1500,1100,1100,1100,0,0,0,0,0,0,0,0
2025-03-31 15:48:45.422026,SERVO_OUTPUT_RAW,1292,1692,1296,1304,1500,1500,1500,1500,,,,,,,,,,,,,,,,,,,
2025-03-31 15:48:45.425561,RC_CHANNELS,,,,,,,,,1500,1500,1500,1494,1700,1498,1500,1500,1100,1100,1100,0,0,0,0,0,0,0,0
2025-03-31 15:48:45.925522,SERVO_OUTPUT_RAW,1292,1692,1296,1304,1500,1500,1500,1500,,,,,,,,,,,,,,,,,,,
2025-03-31 15:48:45.927764,RC_CHANNELS,,,,,,,,,1500,1500,1500,1494,1700,1498,1500,1500,1100,1100,1100,0,0,0,0,0,0,0,0
2025-03-31 15:48:46.422056,SERVO_OUTPUT_RAW,1292,1692,1296,1304,1500,1500,1500,1500,,,,,,,,,,,,,,,,,,,
2025-03-31 15:48:46.425572,RC_CHANNELS,,,,,,,,,1500,1500,1500,1494,1700,1498,1500,1500,1100,1100,1100,0,0,0,0,0,0,0,0
2025-03-31 15:48:46.922050,SERVO_OUTPUT_RAW,1292,1692,1296,1304,1500,1500,1500,1500,,,,,,,,,,,,,,,,,,,
2025-03-31 15:48:46.925676,RC_CHANNELS,,,,,,,,,1500,1500,1500,1494,1700,1498,1500,1500,1100,1100,1100,0,0,0,0,0,0,0,0
2025-03-31 15:48:47.422932,SERVO_OUTPUT_RAW,1303,1703,1307,1293,1513,1513,1487,1513,,,,,,,,,,,,,,,,,,,
2025-03-31 15:48:47.428594,RC_CHANNELS,,,,,,,,,1500,1500,1487,1504,1700,1498,1500,1500,1100,1100,1100,0,0,0,0,0,0,0,0
2025-03-31 15:48:47.922673,SERVO_OUTPUT_RAW,1300,1700,1304,1296,1510,1510,1490,1510,,,,,,,,,,,,,,,,,,,
2025-03-31 15:48:47.926418,RC_CHANNELS,,,,,,,,,1500,1500,1490,1502,1700,1498,1500,1500,1100,1100,1100,0,0,0,0,0,0,0,0
2025-03-31 15:48:48.423221,SERVO_OUTPUT_RAW,1300,1700,1304,1296,1507,1507,1493,1507,,,,,,,,,,,,,,,,,,,
2025-03-31 15:48:48.426788,RC_CHANNELS,,,,,,,,,1500,1500,1493,1502,1700,1498,1500,1500,1100,1100,1100,0,0,0,0,0,0,0,0
2025-03-31 15:48:48.922963,SERVO_OUTPUT_RAW,1300,1700,1304,1296,1502,1502,1498,1502,,,,,,,,,,,,,,,,,,,
2025-03-31 15:48:48.926345,RC_CHANNELS,,,,,,,,,1500,1500,1498,1502,1700,1498,1500,1500,1100,1100,1100,0,0,0,0,0,0,0,0
2025-03-31 15:48:49.421556,SERVO_OUTPUT_RAW,1309,1709,1313,1287,1510,1510,1490,1510,,,,,,,,,,,,,,,,,,,
2025-03-31 15:48:49.424978,RC_CHANNELS,,,,,,,,,1500,1500,1488,1511,1700,1498,1500,1500,1100,1100,1100,0,0,0,0,0,0,0,0
2025-03-31 15:48:49.922174,SERVO_OUTPUT_RAW,1309,1709,1313,1287,1511,1511,1489,1511,,,,,,,,,,,,,,,,,,,
2025-03-31 15:48:49.925300,RC_CHANNELS,,,,,,,,,1500,1500,1489,1511,1700,1498,1500,1500,1100,1100,1100,0,0,0,0,0,0,0,0
2025-03-31 15:48:50.422625,SERVO_OUTPUT_RAW,1309,1709,1313,1287,1511,1511,1489,1511,,,,,,,,,,,,,,,,,,,
2025-03-31 15:48:50.425045,RC_CHANNELS,,,,,,,,,1500,1500,1489,1511,1700,1498,1500,1500,1100,1100,1100,0,0,0,0,0,0,0,0
2025-03-31 15:48:50.923004,SERVO_OUTPUT_RAW,1305,1705,1309,1291,1511,1511,1489,1511,,,,,,,,,,,,,,,,,,,
2025-03-31 15:48:50.926386,RC_CHANNELS,,,,,,,,,1500,1500,1489,1506,1700,1498,1500,1500,1100,1100,1100,0,0,0,0,0,0,0,0
2025-03-31 15:48:51.422637,SERVO_OUTPUT_RAW,1303,1703,1307,1293,1510,1510,1490,1510,,,,,,,,,,,,,,,,,,,
2025-03-31 15:48:51.425056,RC_CHANNELS,,,,,,,,,1500,1500,1490,1505,1700,1498,1500,1500,1100,1100,1100,0,0,0,0,0,0,0,0
2025-03-31 15:48:51.942933,SERVO_OUTPUT_RAW,1301,1701,1305,1295,1503,1503,1497,1503,,,,,,,,,,,,,,,,,,,
2025-03-31 15:48:51.946347,RC_CHANNELS,,,,,,,,,1500,1500,1497,1503,1700,1498,1500,1500,1100,1100,1100,0,0,0,0,0,0,0,0
2025-03-31 15:48:52.442104,SERVO_OUTPUT_RAW,1301,1701,1305,1295,1507,1507,1493,1507,,,,,,,,,,,,,,,,,,,
2025-03-31 15:48:52.445506,RC_CHANNELS,,,,,,,,,1500,1500,1493,1503,1700,1498,1500,1500,1100,1100,1100,0,0,0,0,0,0,0,0
2025-03-31 15:48:52.942033,SERVO_OUTPUT_RAW,1301,1701,1305,1295,1506,1506,1494,1506,,,,,,,,,,,,,,,,,,,
2025-03-31 15:48:52.947672,RC_CHANNELS,,,,,,,,,1500,1500,1494,1503,1700,1498,1500,1500,1100,1100,1100,0,0,0,0,0,0,0,0
2025-03-31 15:48:53.461697,SERVO_OUTPUT_RAW,1301,1701,1305,1295,1507,1507,1493,1507,,,,,,,,,,,,,,,,,,,
2025-03-31 15:48:53.464899,RC_CHANNELS,,,,,,,,,1500,1500,1493,1503,1700,1498,1500,1500,1100,1100,1100,0,0,0,0,0,0,0,0
2025-03-31 15:48:53.961830,SERVO_OUTPUT_RAW,1301,1701,1305,1295,1508,1508,1492,1508,,,,,,,,,,,,,,,,,,,
2025-03-31 15:48:53.965332,RC_CHANNELS,,,,,,,,,1500,1500,1492,1503,1700,1498,1500,1500,1100,1100,1100,0,0,0,0,0,0,0,0
2025-03-31 15:48:54.485764,SERVO_OUTPUT_RAW,1301,1701,1305,1295,1507,1507,1493,1507,,,,,,,,,,,,,,,,,,,
2025-03-31 15:48:54.486861,RC_CHANNELS,,,,,,,,,1500,1500,1493,1503,1700,1498,1500,1500,1100,1100,1100,0,0,0,0,0,0,0,0
2025-03-31 15:48:54.993379,SERVO_OUTPUT_RAW,1301,1701,1305,1295,1507,1507,1493,1507,,,,,,,,,,,,,,,,,,,
2025-03-31 15:48:54.998668,RC_CHANNELS,,,,,,,,,1500,1500,1493,1503,1700,1498,1500,1500,1100,1100,1100,0,0,0,0,0,0,0,0
2025-03-31 15:48:55.482420,SERVO_OUTPUT_RAW,1376,1774,1228,1374,1511,1511,1489,1511,,,,,,,,,,,,,,,,,,,
2025-03-31 15:48:55.486528,RC_CHANNELS,,,,,,,,,1500,1500,1489,1501,1699,1574,1500,1500,1100,1100,1100,0,0,0,0,0,0,0,0
2025-03-31 15:48:55.980825,SERVO_OUTPUT_RAW,1378,1776,1226,1376,1512,1512,1488,1512,,,,,,,,,,,,,,,,,,,
2025-03-31 15:48:55.983907,RC_CHANNELS,,,,,,,,,1500,1500,1488,1501,1699,1576,1500,1500,1100,1100,1100,0,0,0,0,0,0,0,0
2025-03-31 15:48:56.481442,SERVO_OUTPUT_RAW,1379,1775,1227,1377,1512,1512,1488,1512,,,,,,,,,,,,,,,,,,,
2025-03-31 15:48:56.485714,RC_CHANNELS,,,,,,,,,1500,1500,1488,1501,1698,1576,1500,1500,1100,1100,1100,0,0,0,0,0,0,0,0
2025-03-31 15:48:56.982121,SERVO_OUTPUT_RAW,1379,1775,1227,1377,1512,1512,1488,1512,,,,,,,,,,,,,,,,,,,
2025-03-31 15:48:56.986679,RC_CHANNELS,,,,,,,,,1500,1500,1488,1501,1698,1576,1500,1500,1100,1100,1100,0,0,0,0,0,0,0,0
2025-03-31 15:48:57.483859,SERVO_OUTPUT_RAW,1379,1775,1227,1377,1512,1512,1488,1512,,,,,,,,,,,,,,,,,,,
2025-03-31 15:48:57.490105,RC_CHANNELS,,,,,,,,,1500,1500,1488,1501,1698,1576,1500,1500,1100,1100,1100,0,0,0,0,0,0,0,0
2025-03-31 15:48:57.982626,SERVO_OUTPUT_RAW,1369,1769,1233,1367,1512,1512,1488,1512,,,,,,,,,,,,,,,,,,,
2025-03-31 15:48:57.986708,RC_CHANNELS,,,,,,,,,1500,1500,1490,1501,1700,1541,1500,1500,1100,1100,1100,0,0,0,0,0,0,0,0
2025-03-31 15:48:58.482139,SERVO_OUTPUT_RAW,1212,1390,1612,1210,1502,1502,1498,1502,,,,,,,,,,,,,,,,,,,
2025-03-31 15:48:58.486077,RC_CHANNELS,,,,,,,,,1500,1500,1500,1501,1650,1314,1500,1500,1100,1100,1100,0,0,0,0,0,0,0,0
2025-03-31 15:48:59.001542,SERVO_OUTPUT_RAW,1181,1493,1503,1185,1500,1500,1500,1500,,,,,,,,,,,,,,,,,,,
2025-03-31 15:48:59.005013,RC_CHANNELS,,,,,,,,,1500,1500,1500,1498,1656,1339,1500,1500,1100,1100,1100,0,0,0,0,0,0,0,0
2025-03-31 15:48:59.501554,SERVO_OUTPUT_RAW,1182,1490,1506,1186,1500,1500,1500,1500,,,,,,,,,,,,,,,,,,,
2025-03-31 15:48:59.505168,RC_CHANNELS,,,,,,,,,1500,1500,1500,1498,1654,1338,1500,1500,1100,1100,1100,0,0,0,0,0,0,0,0
2025-03-31 15:49:00.044555,SERVO_OUTPUT_RAW,1182,1490,1506,1186,1500,1500,1500,1500,,,,,,,,,,,,,,,,,,,
2025-03-31 15:49:00.053963,RC_CHANNELS,,,,,,,,,1500,1500,1500,1498,1654,1338,1500,1500,1100,1100,1100,0,0,0,0,0,0,0,0
2025-03-31 15:49:00.521485,SERVO_OUTPUT_RAW,1182,1490,1506,1186,1500,1500,1500,1500,,,,,,,,,,,,,,,,,,,
2025-03-31 15:49:00.525005,RC_CHANNELS,,,,,,,,,1500,1500,1500,1498,1654,1338,1500,1500,1100,1100,1100,0,0,0,0,0,0,0,0
2025-03-31 15:49:01.033507,SERVO_OUTPUT_RAW,1182,1490,1506,1186,1500,1500,1500,1500,,,,,,,,,,,,,,,,,,,
2025-03-31 15:49:01.036078,RC_CHANNELS,,,,,,,,,1500,1500,1500,1498,1654,1338,1500,1500,1100,1100,1100,0,0,0,0,0,0,0,0
2025-03-31 15:49:01.522295,SERVO_OUTPUT_RAW,1182,1490,1506,1186,1500,1500,1500,1500,,,,,,,,,,,,,,,,,,,
2025-03-31 15:49:01.525813,RC_CHANNELS,,,,,,,,,1500,1500,1500,1498,1654,1338,1500,1500,1100,1100,1100,0,0,0,0,0,0,0,0
2025-03-31 15:49:02.033374,SERVO_OUTPUT_RAW,1182,1490,1506,1186,1500,1500,1500,1500,,,,,,,,,,,,,,,,,,,
2025-03-31 15:49:02.036054,RC_CHANNELS,,,,,,,,,1500,1500,1500,1498,1654,1338,1500,1500,1100,1100,1100,0,0,0,0,0,0,0,0
2025-03-31 15:49:02.543153,SERVO_OUTPUT_RAW,1181,1507,1489,1185,1504,1504,1496,1504,,,,,,,,,,,,,,,,,,,
2025-03-31 15:49:02.548960,RC_CHANNELS,,,,,,,,,1500,1500,1494,1498,1664,1346,1500,1500,1100,1100,1100,0,0,0,0,0,0,0,0
2025-03-31 15:49:03.044775,SERVO_OUTPUT_RAW,1178,1526,1470,1182,1509,1509,1491,1509,,,,,,,,,,,,,,,,,,,
2025-03-31 15:49:03.048270,RC_CHANNELS,,,,,,,,,1500,1500,1491,1498,1674,1354,1500,1500,1100,1100,1100,0,0,0,0,0,0,0,0
2025-03-31 15:49:03.562106,SERVO_OUTPUT_RAW,1374,1676,1319,1378,1510,1510,1490,1510,,,,,,,,,,,,,,,,,,,
2025-03-31 15:49:03.565891,RC_CHANNELS,,,,,,,,,1500,1500,1490,1498,1643,1578,1500,1500,1100,1100,1100,0,0,0,0,0,0,0,0
2025-03-31 15:49:04.062476,SERVO_OUTPUT_RAW,1617,1779,1217,1621,1510,1510,1490,1510,,,,,,,,,,,,,,,,,,,
2025-03-31 15:49:04.065803,RC_CHANNELS,,,,,,,,,1500,1500,1490,1498,1581,1700,1500,1500,1100,1100,1100,0,0,0,0,0,0,0,0
2025-03-31 15:49:04.562373,SERVO_OUTPUT_RAW,1627,1765,1227,1635,1510,1510,1490,1510,,,,,,,,,,,,,,,,,,,
2025-03-31 15:49:04.565853,RC_CHANNELS,,,,,,,,,1500,1500,1490,1496,1569,1700,1500,1500,1100,1100,1100,0,0,0,0,0,0,0,0
2025-03-31 15:49:05.083022,SERVO_OUTPUT_RAW,1627,1765,1227,1635,1510,1510,1490,1510,,,,,,,,,,,,,,,,,,,
2025-03-31 15:49:05.086717,RC_CHANNELS,,,,,,,,,1500,1500,1490,1496,1569,1700,1500,1500,1100,1100,1100,0,0,0,0,0,0,0,0
2025-03-31 15:49:05.583965,SERVO_OUTPUT_RAW,1496,1488,1498,1510,1508,1508,1492,1508,,,,,,,,,,,,,,,,,,,
2025-03-31 15:49:05.587729,RC_CHANNELS,,,,,,,,,1500,1500,1490,1492,1496,1499,1500,1500,1100,1100,1100,0,0,0,0,0,0,0,0
2025-03-31 15:49:06.083260,SERVO_OUTPUT_RAW,1513,1505,1515,1493,1700,1700,1300,1700,,,,,,,,,,,,,,,,,,,
2025-03-31 15:49:06.089067,RC_CHANNELS,,,,,,,,,1500,1500,1300,1510,1496,1499,1500,1500,1100,1100,1100,0,0,0,0,0,0,0,0
2025-03-31 15:49:06.601954,SERVO_OUTPUT_RAW,1518,1510,1520,1488,1700,1700,1300,1700,,,,,,,,,,,,,,,,,,,
2025-03-31 15:49:06.607392,RC_CHANNELS,,,,,,,,,1500,1500,1300,1515,1496,1499,1500,1500,1100,1100,1100,0,0,0,0,0,0,0,0
2025-03-31 15:49:07.101762,SERVO_OUTPUT_RAW,1519,1509,1521,1489,1700,1700,1300,1700,,,,,,,,,,,,,,,,,,,
2025-03-31 15:49:07.105008,RC_CHANNELS,,,,,,,,,1500,1500,1300,1515,1495,1499,1500,1500,1100,1100,1100,0,0,0,0,0,0,0,0
2025-03-31 15:49:07.601968,SERVO_OUTPUT_RAW,1519,1509,1521,1489,1700,1700,1300,1700,,,,,,,,,,,,,,,,,,,
2025-03-31 15:49:07.605430,RC_CHANNELS,,,,,,,,,1500,1500,1300,1515,1495,1499,1500,1500,1100,1100,1100,0,0,0,0,0,0,0,0
2025-03-31 15:49:08.101705,SERVO_OUTPUT_RAW,1505,1495,1507,1503,1498,1498,1502,1498,,,,,,,,,,,,,,,,,,,
2025-03-31 15:49:08.105331,RC_CHANNELS,,,,,,,,,1500,1500,1500,1500,1495,1499,1500,1500,1100,1100,1100,0,0,0,0,0,0,0,0
2025-03-31 15:49:08.620979,SERVO_OUTPUT_RAW,1481,1531,1467,1483,1498,1498,1502,1498,,,,,,,,,,,,,,,,,,,
2025-03-31 15:49:08.623613,RC_CHANNELS,,,,,,,,,1500,1500,1504,1499,1527,1507,1500,1500,1100,1100,1100,0,0,0,0,0,0,0,0
2025-03-31 15:49:09.121831,SERVO_OUTPUT_RAW,1501,1519,1487,1495,1300,1300,1700,1300,,,,,,,,,,,,,,,,,,,
2025-03-31 15:49:09.124218,RC_CHANNELS,,,,,,,,,1500,1500,1700,1503,1508,1507,1500,1500,1100,1100,1100,0,0,0,0,0,0,0,0
2025-03-31 15:49:09.621817,SERVO_OUTPUT_RAW,1502,1518,1488,1496,1300,1300,1700,1300,,,,,,,,,,,,,,,,,,,
2025-03-31 15:49:09.625175,RC_CHANNELS,,,,,,,,,1500,1500,1700,1503,1507,1507,1500,1500,1100,1100,1100,0,0,0,0,0,0,0,0
2025-03-31 15:49:10.122929,SERVO_OUTPUT_RAW,1502,1516,1490,1496,1300,1300,1700,1300,,,,,,,,,,,,,,,,,,,
2025-03-31 15:49:10.125628,RC_CHANNELS,,,,,,,,,1500,1500,1700,1503,1507,1506,1500,1500,1100,1100,1100,0,0,0,0,0,0,0,0
2025-03-31 15:49:10.621888,SERVO_OUTPUT_RAW,1502,1516,1490,1496,1300,1300,1700,1300,,,,,,,,,,,,,,,,,,,
2025-03-31 15:49:10.625318,RC_CHANNELS,,,,,,,,,1500,1500,1700,1503,1507,1506,1500,1500,1100,1100,1100,0,0,0,0,0,0,0,0
2025-03-31 15:49:11.145403,SERVO_OUTPUT_RAW,1493,1507,1481,1505,1510,1510,1490,1510,,,,,,,,,,,,,,,,,,,
2025-03-31 15:49:11.150606,RC_CHANNELS,,,,,,,,,1500,1500,1496,1495,1507,1506,1500,1500,1100,1100,1100,0,0,0,0,0,0,0,0
2025-03-31 15:49:11.644563,SERVO_OUTPUT_RAW,1497,1511,1485,1501,1479,1479,1521,1479,,,,,,,,,,,,,,,,,,,
2025-03-31 15:49:11.645638,RC_CHANNELS,,,,,,,,,1500,1500,1530,1498,1507,1506,1500,1500,1100,1100,1100,0,0,0,0,0,0,0,0
2025-03-31 15:49:12.141651,SERVO_OUTPUT_RAW,1509,1523,1497,1489,1378,1378,1622,1378,,,,,,,,,,,,,,,,,,,
2025-03-31 15:49:12.145091,RC_CHANNELS,,,,,,,,,1500,1500,1622,1510,1507,1506,1500,1500,1100,1100,1100,0,0,0,0,0,0,0,0
2025-03-31 15:49:12.642034,SERVO_OUTPUT_RAW,1509,1523,1497,1489,1350,1350,1650,1350,,,,,,,,,,,,,,,,,,,
2025-03-31 15:49:12.645836,RC_CHANNELS,,,,,,,,,1500,1500,1650,1510,1507,1506,1500,1500,1100,1100,1100,0,0,0,0,0,0,0,0
2025-03-31 15:49:13.161539,SERVO_OUTPUT_RAW,1533,1543,1521,1469,1304,1304,1696,1304,,,,,,,,,,,,,,,,,,,
2025-03-31 15:49:13.164905,RC_CHANNELS,,,,,,,,,1500,1500,1698,1532,1505,1506,1500,1500,1100,1100,1100,0,0,0,0,0,0,0,0
2025-03-31 15:49:13.682934,SERVO_OUTPUT_RAW,1506,1530,1488,1488,1498,1498,1502,1498,,,,,,,,,,,,,,,,,,,
2025-03-31 15:49:13.688665,RC_CHANNELS,,,,,,,,,1500,1500,1501,1504,1513,1510,1500,1500,1100,1100,1100,0,0,0,0,0,0,0,0
2025-03-31 15:49:14.183967,SERVO_OUTPUT_RAW,1535,1539,1515,1481,1360,1360,1640,1360,,,,,,,,,,,,,,,,,,,
2025-03-31 15:49:14.184826,RC_CHANNELS,,,,,,,,,1500,1500,1654,1535,1502,1510,1500,1500,1100,1100,1100,0,0,0,0,0,0,0,0
2025-03-31 15:49:14.681957,SERVO_OUTPUT_RAW,1572,1576,1556,1440,1301,1301,1699,1301,,,,,,,,,,,,,,,,,,,
2025-03-31 15:49:14.684650,RC_CHANNELS,,,,,,,,,1500,1500,1700,1566,1502,1508,1500,1500,1100,1100,1100,0,0,0,0,0,0,0,0
2025-03-31 15:49:15.181279,SERVO_OUTPUT_RAW,1501,1509,1489,1503,1500,1500,1500,1500,,,,,,,,,,,,,,,,,,,
2025-03-31 15:49:15.185192,RC_CHANNELS,,,,,,,,,1500,1500,1500,1498,1504,1506,1500,1500,1100,1100,1100,0,0,0,0,0,0,0,0
2025-03-31 15:49:15.703565,SERVO_OUTPUT_RAW,1524,1530,1512,1481,1370,1370,1630,1370,,,,,,,,,,,,,,,,,,,
2025-03-31 15:49:15.707174,RC_CHANNELS,,,,,,,,,1500,1500,1630,1527,1503,1506,1500,1500,1100,1100,1100,0,0,0,0,0,0,0,0
2025-03-31 15:49:16.222412,SERVO_OUTPUT_RAW,1571,1577,1559,1435,1302,1302,1698,1302,,,,,,,,,,,,,,,,,,,
2025-03-31 15:49:16.228159,RC_CHANNELS,,,,,,,,,1500,1500,1698,1568,1503,1506,1500,1500,1100,1100,1100,0,0,0,0,0,0,0,0
2025-03-31 15:49:16.721576,SERVO_OUTPUT_RAW,1570,1576,1560,1434,1302,1302,1698,1302,,,,,,,,,,,,,,,,,,,
2025-03-31 15:49:16.725140,RC_CHANNELS,,,,,,,,,1500,1500,1698,1568,1503,1505,1500,1500,1100,1100,1100,0,0,0,0,0,0,0,0
2025-03-31 15:49:17.224440,SERVO_OUTPUT_RAW,1570,1576,1560,1434,1302,1302,1698,1302,,,,,,,,,,,,,,,,,,,
2025-03-31 15:49:17.229991,RC_CHANNELS,,,,,,,,,1500,1500,1698,1568,1503,1505,1500,1500,1100,1100,1100,0,0,0,0,0,0,0,0
2025-03-31 15:49:17.742020,SERVO_OUTPUT_RAW,1564,1570,1554,1440,1305,1305,1695,1305,,,,,,,,,,,,,,,,,,,
2025-03-31 15:49:17.745240,RC_CHANNELS,,,,,,,,,1500,1500,1670,1540,1502,1505,1500,1500,1100,1100,1100,0,0,0,0,0,0,0,0
2025-03-31 15:49:18.262230,SERVO_OUTPUT_RAW,1510,1502,1500,1508,1500,1500,1500,1500,,,,,,,,,,,,,,,,,,,
2025-03-31 15:49:18.266867,RC_CHANNELS,,,,,,,,,1500,1500,1500,1501,1496,1505,1500,1500,1100,1100,1100,0,0,0,0,0,0,0,0
2025-03-31 15:49:18.762502,SERVO_OUTPUT_RAW,1504,1506,1494,1504,1487,1487,1513,1487,,,,,,,,,,,,,,,,,,,
2025-03-31 15:49:18.766146,RC_CHANNELS,,,,,,,,,1500,1500,1528,1500,1501,1505,1500,1500,1100,1100,1100,0,0,0,0,0,0,0,0
2025-03-31 15:49:19.294358,SERVO_OUTPUT_RAW,1509,1513,1509,1487,1300,1300,1700,1300,,,,,,,,,,,,,,,,,,,
2025-03-31 15:49:19.299631,RC_CHANNELS,,,,,,,,,1500,1500,1700,1511,1502,1500,1500,1500,1100,1100,1100,0,0,0,0,0,0,0,0
2025-03-31 15:49:19.788022,SERVO_OUTPUT_RAW,1470,1537,1456,1476,1498,1498,1502,1498,,,,,,,,,,,,,,,,,,,
2025-03-31 15:49:19.790694,RC_CHANNELS,,,,,,,,,1500,1500,1502,1497,1533,1507,1500,1500,1100,1100,1100,0,0,0,0,0,0,0,0
2025-03-31 15:49:20.303296,SERVO_OUTPUT_RAW,1484,1526,1464,1494,1518,1518,1482,1518,,,,,,,,,,,,,,,,,,,
2025-03-31 15:49:20.308187,RC_CHANNELS,,,,,,,,,1500,1500,1482,1495,1521,1510,1500,1500,1100,1100,1100,0,0,0,0,0,0,0,0
2025-03-31 15:49:20.802182,SERVO_OUTPUT_RAW,1487,1525,1467,1495,1685,1685,1315,1685,,,,,,,,,,,,,,,,,,,
2025-03-31 15:49:20.805530,RC_CHANNELS,,,,,,,,,1500,1500,1300,1497,1518,1510,1500,1500,1100,1100,1100,0,0,0,0,0,0,0,0
2025-03-31 15:49:21.320913,SERVO_OUTPUT_RAW,1497,1527,1477,1493,1700,1700,1300,1700,,,,,,,,,,,,,,,,,,,
2025-03-31 15:49:21.324653,RC_CHANNELS,,,,,,,,,1500,1500,1300,1502,1515,1510,1500,1500,1100,1100,1100,0,0,0,0,0,0,0,0
2025-03-31 15:49:21.842746,SERVO_OUTPUT_RAW,1487,1509,1467,1511,1512,1512,1488,1512,,,,,,,,,,,,,,,,,,,
2025-03-31 15:49:21.846491,RC_CHANNELS,,,,,,,,,1500,1500,1488,1488,1511,1510,1500,1500,1100,1100,1100,0,0,0,0,0,0,0,0
2025-03-31 15:49:22.392355,SERVO_OUTPUT_RAW,1494,1508,1476,1510,1492,1492,1508,1492,,,,,,,,,,,,,,,,,,,
2025-03-31 15:49:22.394646,RC_CHANNELS,,,,,,,,,1500,1500,1504,1492,1507,1509,1500,1500,1100,1100,1100,0,0,0,0,0,0,0,0
2025-03-31 15:49:22.903219,SERVO_OUTPUT_RAW,1501,1507,1483,1511,1368,1368,1632,1368,,,,,,,,,,,,,,,,,,,
2025-03-31 15:49:22.906710,RC_CHANNELS,,,,,,,,,1500,1500,1632,1495,1503,1509,1500,1500,1100,1100,1100,0,0,0,0,0,0,0,0
2025-03-31 15:49:23.421494,SERVO_OUTPUT_RAW,1509,1513,1491,1505,1341,1341,1659,1341,,,,,,,,,,,,,,,,,,,
2025-03-31 15:49:23.424901,RC_CHANNELS,,,,,,,,,1500,1500,1660,1502,1502,1509,1500,1500,1100,1100,1100,0,0,0,0,0,0,0,0
2025-03-31 15:49:23.921550,SERVO_OUTPUT_RAW,1504,1508,1486,1510,1497,1497,1503,1497,,,,,,,,,,,,,,,,,,,
2025-03-31 15:49:23.925021,RC_CHANNELS,,,,,,,,,1500,1500,1502,1496,1502,1509,1500,1500,1100,1100,1100,0,0,0,0,0,0,0,0
2025-03-31 15:49:24.424334,SERVO_OUTPUT_RAW,1508,1502,1490,1516,1498,1498,1502,1498,,,,,,,,,,,,,,,,,,,
2025-03-31 15:49:24.425054,RC_CHANNELS,,,,,,,,,1500,1500,1502,1496,1497,1509,1500,1500,1100,1100,1100,0,0,0,0,0,0,0,0
2025-03-31 15:49:24.942242,SERVO_OUTPUT_RAW,1496,1490,1482,1523,1498,1498,1502,1498,,,,,,,,,,,,,,,,,,,
2025-03-31 15:49:24.945472,RC_CHANNELS,,,,,,,,,1500,1500,1502,1486,1497,1507,1500,1500,1100,1100,1100,0,0,0,0,0,0,0,0
2025-03-31 15:49:25.461306,SERVO_OUTPUT_RAW,1492,1486,1490,1516,1498,1498,1502,1498,,,,,,,,,,,,,,,,,,,
2025-03-31 15:49:25.464791,RC_CHANNELS,,,,,,,,,1500,1500,1502,1488,1497,1501,1500,1500,1100,1100,1100,0,0,0,0,0,0,0,0
2025-03-31 15:49:25.982157,SERVO_OUTPUT_RAW,1491,1492,1491,1507,1498,1498,1502,1498,,,,,,,,,,,,,,,,,,,
2025-03-31 15:49:25.985917,RC_CHANNELS,,,,,,,,,1500,1500,1502,1492,1501,1500,1500,1500,1100,1100,1100,0,0,0,0,0,0,0,0
2025-03-31 15:49:26.505114,SERVO_OUTPUT_RAW,1483,1501,1483,1499,1498,1498,1502,1498,,,,,,,,,,,,,,,,,,,
2025-03-31 15:49:26.507827,RC_CHANNELS,,,,,,,,,1500,1500,1502,1492,1509,1500,1500,1500,1100,1100,1100,0,0,0,0,0,0,0,0
2025-03-31 15:49:27.032418,SERVO_OUTPUT_RAW,1351,1365,1351,1635,1509,1509,1491,1509,,,,,,,,,,,,,,,,,,,
2025-03-31 15:49:27.035093,RC_CHANNELS,,,,,,,,,1500,1500,1491,1328,1507,1500,1500,1500,1100,1100,1100,0,0,0,0,0,0,0,0
2025-03-31 15:49:27.521579,SERVO_OUTPUT_RAW,1294,1306,1294,1694,1512,1512,1488,1512,,,,,,,,,,,,,,,,,,,
2025-03-31 15:49:27.524849,RC_CHANNELS,,,,,,,,,1500,1500,1488,1300,1506,1500,1500,1500,1100,1100,1100,0,0,0,0,0,0,0,0
2025-03-31 15:49:28.034266,SERVO_OUTPUT_RAW,1295,1305,1295,1695,1516,1516,1484,1516,,,,,,,,,,,,,,,,,,,
2025-03-31 15:49:28.037366,RC_CHANNELS,,,,,,,,,1500,1500,1484,1300,1505,1500,1500,1500,1100,1100,1100,0,0,0,0,0,0,0,0
2025-03-31 15:49:28.522248,SERVO_OUTPUT_RAW,1440,1456,1440,1543,1509,1509,1491,1509,,,,,,,,,,,,,,,,,,,
2025-03-31 15:49:28.524216,RC_CHANNELS,,,,,,,,,1500,1500,1492,1486,1508,1500,1500,1500,1100,1100,1100,0,0,0,0,0,0,0,0
2025-03-31 15:49:29.044553,SERVO_OUTPUT_RAW,1475,1497,1475,1503,1507,1507,1493,1507,,,,,,,,,,,,,,,,,,,
2025-03-31 15:49:29.047188,RC_CHANNELS,,,,,,,,,1500,1500,1493,1487,1511,1500,1500,1500,1100,1100,1100,0,0,0,0,0,0,0,0
2025-03-31 15:49:29.541812,SERVO_OUTPUT_RAW,1463,1511,1463,1489,1500,1500,1500,1500,,,,,,,,,,,,,,,,,,,
2025-03-31 15:49:29.545414,RC_CHANNELS,,,,,,,,,1500,1500,1500,1487,1524,1500,1500,1500,1100,1100,1100,0,0,0,0,0,0,0,0
2025-03-31 15:49:30.040998,SERVO_OUTPUT_RAW,1473,1521,1473,1479,1507,1507,1493,1507,,,,,,,,,,,,,,,,,,,
2025-03-31 15:49:30.044529,RC_CHANNELS,,,,,,,,,1500,1500,1492,1501,1524,1500,1500,1500,1100,1100,1100,0,0,0,0,0,0,0,0
2025-03-31 15:49:30.562302,SERVO_OUTPUT_RAW,1676,1724,1676,1276,1513,1513,1487,1513,,,,,,,,,,,,,,,,,,,
2025-03-31 15:49:30.567658,RC_CHANNELS,,,,,,,,,1500,1500,1487,1700,1524,1500,1500,1500,1100,1100,1100,0,0,0,0,0,0,0,0
2025-03-31 15:49:31.083666,SERVO_OUTPUT_RAW,1503,1507,1503,1492,1507,1507,1493,1507,,,,,,,,,,,,,,,,,,,
2025-03-31 15:49:31.086418,RC_CHANNELS,,,,,,,,,1500,1500,1482,1500,1500,1500,1500,1500,1100,1100,1100,0,0,0,0,0,0,0,0
2025-03-31 15:49:31.602519,SERVO_OUTPUT_RAW,1509,1523,1509,1477,1700,1700,1300,1700,,,,,,,,,,,,,,,,,,,
2025-03-31 15:49:31.607216,RC_CHANNELS,,,,,,,,,1500,1500,1300,1516,1507,1500,1500,1500,1100,1100,1100,0,0,0,0,0,0,0,0
2025-03-31 15:49:32.101559,SERVO_OUTPUT_RAW,1509,1523,1509,1477,1700,1700,1300,1700,,,,,,,,,,,,,,,,,,,
2025-03-31 15:49:32.105057,RC_CHANNELS,,,,,,,,,1500,1500,1300,1516,1507,1500,1500,1500,1100,1100,1100,0,0,0,0,0,0,0,0
2025-03-31 15:49:32.606577,SERVO_OUTPUT_RAW,1483,1493,1483,1507,1510,1510,1490,1510,,,,,,,,,,,,,,,,,,,
2025-03-31 15:49:32.611625,RC_CHANNELS,,,,,,,,,1500,1500,1490,1488,1503,1500,1500,1500,1100,1100,1100,0,0,0,0,0,0,0,0
2025-03-31 15:49:33.101968,SERVO_OUTPUT_RAW,1485,1491,1485,1509,1510,1510,1490,1510,,,,,,,,,,,,,,,,,,,
2025-03-31 15:49:33.105706,RC_CHANNELS,,,,,,,,,1500,1500,1490,1488,1503,1500,1500,1500,1100,1100,1100,0,0,0,0,0,0,0,0
2025-03-31 15:49:33.620256,SERVO_OUTPUT_RAW,1489,1495,1489,1505,1521,1521,1479,1521,,,,,,,,,,,,,,,,,,,
2025-03-31 15:49:33.623613,RC_CHANNELS,,,,,,,,,1500,1500,1474,1492,1504,1500,1500,1500,1100,1100,1100,0,0,0,0,0,0,0,0
2025-03-31 15:49:34.120720,SERVO_OUTPUT_RAW,1494,1498,1494,1502,1495,1495,1505,1495,,,,,,,,,,,,,,,,,,,
2025-03-31 15:49:34.125774,RC_CHANNELS,,,,,,,,,1500,1500,1504,1496,1502,1500,1500,1500,1100,1100,1100,0,0,0,0,0,0,0,0
2025-03-31 15:49:34.641035,SERVO_OUTPUT_RAW,1492,1496,1496,1500,1498,1498,1502,1498,,,,,,,,,,,,,,,,,,,
2025-03-31 15:49:34.644493,RC_CHANNELS,,,,,,,,,1500,1500,1502,1496,1502,1498,1500,1500,1100,1100,1100,0,0,0,0,0,0,0,0
2025-03-31 15:49:35.162002,SERVO_OUTPUT_RAW,1492,1496,1496,1500,1498,1498,1502,1498,,,,,,,,,,,,,,,,,,,
2025-03-31 15:49:35.165672,RC_CHANNELS,,,,,,,,,1500,1500,1502,1496,1502,1498,1500,1500,1100,1100,1100,0,0,0,0,0,0,0,0
2025-03-31 15:49:35.668520,SERVO_OUTPUT_RAW,1492,1496,1496,1500,1498,1498,1502,1498,,,,,,,,,,,,,,,,,,,
2025-03-31 15:49:35.672907,RC_CHANNELS,,,,,,,,,1500,1500,1502,1496,1502,1498,1500,1500,1100,1100,1100,0,0,0,0,0,0,0,0
2025-03-31 15:49:36.182066,SERVO_OUTPUT_RAW,1492,1496,1496,1500,1498,1498,1502,1498,,,,,,,,,,,,,,,,,,,
2025-03-31 15:49:36.185319,RC_CHANNELS,,,,,,,,,1500,1500,1502,1496,1502,1498,1500,1500,1100,1100,1100,0,0,0,0,0,0,0,0
2025-03-31 15:49:36.679989,SERVO_OUTPUT_RAW,1492,1496,1496,1500,1498,1498,1502,1498,,,,,,,,,,,,,,,,,,,
2025-03-31 15:49:36.682702,RC_CHANNELS,,,,,,,,,1500,1500,1502,1496,1502,1498,1500,1500,1100,1100,1100,0,0,0,0,0,0,0,0
2025-03-31 15:49:37.181416,SERVO_OUTPUT_RAW,1492,1496,1496,1500,1498,1498,1502,1498,,,,,,,,,,,,,,,,,,,
2025-03-31 15:49:37.184924,RC_CHANNELS,,,,,,,,,1500,1500,1502,1496,1502,1498,1500,1500,1100,1100,1100,0,0,0,0,0,0,0,0
2025-03-31 15:49:37.680360,SERVO_OUTPUT_RAW,1492,1496,1496,1500,1498,1498,1502,1498,,,,,,,,,,,,,,,,,,,
2025-03-31 15:49:37.682894,RC_CHANNELS,,,,,,,,,1500,1500,1502,1496,1502,1498,1500,1500,1100,1100,1100,0,0,0,0,0,0,0,0
2025-03-31 15:49:38.182849,SERVO_OUTPUT_RAW,1492,1496,1496,1500,1498,1498,1502,1498,,,,,,,,,,,,,,,,,,,
2025-03-31 15:49:38.188378,RC_CHANNELS,,,,,,,,,1500,1500,1502,1496,1502,1498,1500,1500,1100,1100,1100,0,0,0,0,0,0,0,0
2025-03-31 15:49:38.681706,SERVO_OUTPUT_RAW,1492,1498,1494,1500,1498,1498,1502,1498,,,,,,,,,,,,,,,,,,,
2025-03-31 15:49:38.684952,RC_CHANNELS,,,,,,,,,1500,1500,1502,1496,1503,1499,1500,1500,1100,1100,1100,0,0,0,0,0,0,0,0
2025-03-31 15:49:39.199869,SERVO_OUTPUT_RAW,1491,1499,1493,1499,1498,1498,1502,1498,,,,,,,,,,,,,,,,,,,
2025-03-31 15:49:39.204847,RC_CHANNELS,,,,,,,,,1500,1500,1502,1496,1504,1499,1500,1500,1100,1100,1100,0,0,0,0,0,0,0,0
2025-03-31 15:49:39.700015,SERVO_OUTPUT_RAW,1491,1499,1493,1499,1498,1498,1502,1498,,,,,,,,,,,,,,,,,,,
2025-03-31 15:49:39.702827,RC_CHANNELS,,,,,,,,,1500,1500,1502,1496,1504,1499,1500,1500,1100,1100,1100,0,0,0,0,0,0,0,0
2025-03-31 15:49:40.200094,SERVO_OUTPUT_RAW,1495,1495,1497,1503,1396,1396,1604,1396,,,,,,,,,,,,,,,,,,,
2025-03-31 15:49:40.202535,RC_CHANNELS,,,,,,,,,1500,1500,1612,1495,1499,1499,1500,1500,1100,1100,1100,0,0,0,0,0,0,0,0
2025-03-31 15:49:40.700953,SERVO_OUTPUT_RAW,1484,1476,1486,1522,1324,1324,1676,1324,,,,,,,,,,,,,,,,,,,
2025-03-31 15:49:40.703508,RC_CHANNELS,,,,,,,,,1500,1500,1677,1481,1496,1499,1500,1500,1100,1100,1100,0,0,0,0,0,0,0,0
2025-03-31 15:49:41.200250,SERVO_OUTPUT_RAW,1484,1476,1486,1522,1322,1322,1678,1322,,,,,,,,,,,,,,,,,,,
2025-03-31 15:49:41.205187,RC_CHANNELS,,,,,,,,,1500,1500,1678,1481,1496,1499,1500,1500,1100,1100,1100,0,0,0,0,0,0,0,0
2025-03-31 15:49:41.701479,SERVO_OUTPUT_RAW,1504,1496,1506,1502,1300,1300,1700,1300,,,,,,,,,,,,,,,,,,,
2025-03-31 15:49:41.704816,RC_CHANNELS,,,,,,,,,1500,1500,1700,1501,1496,1499,1500,1500,1100,1100,1100,0,0,0,0,0,0,0,0
2025-03-31 15:49:42.202637,SERVO_OUTPUT_RAW,1505,1495,1507,1503,1300,1300,1700,1300,,,,,,,,,,,,,,,,,,,
2025-03-31 15:49:42.209337,RC_CHANNELS,,,,,,,,,1500,1500,1700,1501,1495,1499,1500,1500,1100,1100,1100,0,0,0,0,0,0,0,0
2025-03-31 15:49:42.711048,SERVO_OUTPUT_RAW,1505,1495,1507,1503,1300,1300,1700,1300,,,,,,,,,,,,,,,,,,,
2025-03-31 15:49:42.712811,RC_CHANNELS,,,,,,,,,1500,1500,1700,1501,1495,1499,1500,1500,1100,1100,1100,0,0,0,0,0,0,0,0
2025-03-31 15:49:43.222790,SERVO_OUTPUT_RAW,1505,1495,1507,1503,1300,1300,1700,1300,,,,,,,,,,,,,,,,,,,
2025-03-31 15:49:43.228648,RC_CHANNELS,,,,,,,,,1500,1500,1700,1501,1495,1499,1500,1500,1100,1100,1100,0,0,0,0,0,0,0,0
2025-03-31 15:49:43.740457,SERVO_OUTPUT_RAW,1505,1495,1507,1503,1300,1300,1700,1300,,,,,,,,,,,,,,,,,,,
2025-03-31 15:49:43.743426,RC_CHANNELS,,,,,,,,,1500,1500,1700,1501,1495,1499,1500,1500,1100,1100,1100,0,0,0,0,0,0,0,0
2025-03-31 15:49:44.262380,SERVO_OUTPUT_RAW,1505,1495,1507,1503,1300,1300,1700,1300,,,,,,,,,,,,,,,,,,,
2025-03-31 15:49:44.268147,RC_CHANNELS,,,,,,,,,1500,1500,1700,1501,1495,1499,1500,1500,1100,1100,1100,0,0,0,0,0,0,0,0
2025-03-31 15:49:44.760393,SERVO_OUTPUT_RAW,1502,1496,1504,1501,1384,1384,1616,1384,,,,,,,,,,,,,,,,,,,
2025-03-31 15:49:44.763054,RC_CHANNELS,,,,,,,,,1500,1500,1616,1504,1497,1499,1500,1500,1100,1100,1100,0,0,0,0,0,0,0,0
2025-03-31 15:49:45.261443,SERVO_OUTPUT_RAW,1523,1515,1525,1483,1300,1300,1700,1300,,,,,,,,,,,,,,,,,,,
2025-03-31 15:49:45.264736,RC_CHANNELS,,,,,,,,,1500,1500,1700,1520,1496,1499,1500,1500,1100,1100,1100,0,0,0,0,0,0,0,0
2025-03-31 15:49:45.788019,SERVO_OUTPUT_RAW,1523,1515,1525,1483,1300,1300,1700,1300,,,,,,,,,,,,,,,,,,,
2025-03-31 15:49:45.788506,RC_CHANNELS,,,,,,,,,1500,1500,1700,1520,1496,1499,1500,1500,1100,1100,1100,0,0,0,0,0,0,0,0
2025-03-31 15:49:46.287077,SERVO_OUTPUT_RAW,1530,1522,1518,1490,1300,1300,1700,1300,,,,,,,,,,,,,,,,,,,
2025-03-31 15:49:46.290072,RC_CHANNELS,,,,,,,,,1500,1500,1700,1520,1497,1507,1500,1500,1100,1100,1100,0,0,0,0,0,0,0,0
2025-03-31 15:49:46.802128,SERVO_OUTPUT_RAW,1530,1526,1514,1490,1300,1300,1700,1300,,,,,,,,,,,,,,,,,,,
2025-03-31 15:49:46.806736,RC_CHANNELS,,,,,,,,,1500,1500,1700,1520,1498,1508,1500,1500,1100,1100,1100,0,0,0,0,0,0,0,0
2025-03-31 15:49:47.301714,SERVO_OUTPUT_RAW,1531,1529,1511,1491,1300,1300,1700,1300,,,,,,,,,,,,,,,,,,,
2025-03-31 15:49:47.305469,RC_CHANNELS,,,,,,,,,1500,1500,1700,1520,1499,1510,1500,1500,1100,1100,1100,0,0,0,0,0,0,0,0
2025-03-31 15:49:47.801412,SERVO_OUTPUT_RAW,1532,1530,1512,1490,1300,1300,1700,1300,,,,,,,,,,,,,,,,,,,
2025-03-31 15:49:47.804837,RC_CHANNELS,,,,,,,,,1500,1500,1700,1521,1499,1510,1500,1500,1100,1100,1100,0,0,0,0,0,0,0,0
2025-03-31 15:49:48.301752,SERVO_OUTPUT_RAW,1532,1530,1512,1490,1300,1300,1700,1300,,,,,,,,,,,,,,,,,,,
2025-03-31 15:49:48.305291,RC_CHANNELS,,,,,,,,,1500,1500,1700,1521,1499,1510,1500,1500,1100,1100,1100,0,0,0,0,0,0,0,0
2025-03-31 15:49:48.800379,SERVO_OUTPUT_RAW,1532,1530,1512,1490,1300,1300,1700,1300,,,,,,,,,,,,,,,,,,,
2025-03-31 15:49:48.802753,RC_CHANNELS,,,,,,,,,1500,1500,1700,1521,1499,1510,1500,1500,1100,1100,1100,0,0,0,0,0,0,0,0
2025-03-31 15:49:49.323435,SERVO_OUTPUT_RAW,1532,1530,1512,1490,1300,1300,1700,1300,,,,,,,,,,,,,,,,,,,
2025-03-31 15:49:49.325786,RC_CHANNELS,,,,,,,,,1500,1500,1700,1521,1499,1510,1500,1500,1100,1100,1100,0,0,0,0,0,0,0,0
2025-03-31 15:49:49.839389,SERVO_OUTPUT_RAW,1536,1534,1516,1486,1300,1300,1700,1300,,,,,,,,,,,,,,,,,,,
2025-03-31 15:49:49.842137,RC_CHANNELS,,,,,,,,,1500,1500,1700,1525,1499,1510,1500,1500,1100,1100,1100,0,0,0,0,0,0,0,0
2025-03-31 15:49:50.381094,SERVO_OUTPUT_RAW,1539,1537,1519,1483,1300,1300,1700,1300,,,,,,,,,,,,,,,,,,,
2025-03-31 15:49:50.383654,RC_CHANNELS,,,,,,,,,1500,1500,1700,1528,1499,1510,1500,1500,1100,1100,1100,0,0,0,0,0,0,0,0
2025-03-31 15:49:50.911134,SERVO_OUTPUT_RAW,1539,1537,1519,1483,1300,1300,1700,1300,,,,,,,,,,,,,,,,,,,
2025-03-31 15:49:50.916316,RC_CHANNELS,,,,,,,,,1500,1500,1700,1528,1499,1510,1500,1500,1100,1100,1100,0,0,0,0,0,0,0,0
2025-03-31 15:49:51.399929,SERVO_OUTPUT_RAW,1541,1539,1521,1481,1300,1300,1700,1300,,,,,,,,,,,,,,,,,,,
2025-03-31 15:49:51.402697,RC_CHANNELS,,,,,,,,,1500,1500,1700,1530,1499,1510,1500,1500,1100,1100,1100,0,0,0,0,0,0,0,0
2025-03-31 15:49:51.901145,SERVO_OUTPUT_RAW,1541,1539,1521,1481,1300,1300,1700,1300,,,,,,,,,,,,,,,,,,,
2025-03-31 15:49:51.904466,RC_CHANNELS,,,,,,,,,1500,1500,1700,1530,1499,1510,1500,1500,1100,1100,1100,0,0,0,0,0,0,0,0
2025-03-31 15:49:52.401628,SERVO_OUTPUT_RAW,1541,1539,1521,1481,1300,1300,1700,1300,,,,,,,,,,,,,,,,,,,
2025-03-31 15:49:52.404965,RC_CHANNELS,,,,,,,,,1500,1500,1700,1530,1499,1510,1500,1500,1100,1100,1100,0,0,0,0,0,0,0,0
2025-03-31 15:49:52.901130,SERVO_OUTPUT_RAW,1541,1539,1521,1481,1312,1312,1688,1312,,,,,,,,,,,,,,,,,,,
2025-03-31 15:49:52.905693,RC_CHANNELS,,,,,,,,,1500,1500,1668,1522,1499,1510,1500,1500,1100,1100,1100,0,0,0,0,0,0,0,0
2025-03-31 15:49:53.399909,SERVO_OUTPUT_RAW,1510,1510,1490,1510,1498,1498,1502,1498,,,,,,,,,,,,,,,,,,,
2025-03-31 15:49:53.402392,RC_CHANNELS,,,,,,,,,1500,1500,1502,1500,1500,1510,1500,1500,1100,1100,1100,0,0,0,0,0,0,0,0
2025-03-31 15:49:53.901014,SERVO_OUTPUT_RAW,1509,1507,1493,1509,1504,1504,1496,1504,,,,,,,,,,,,,,,,,,,
2025-03-31 15:49:53.904363,RC_CHANNELS,,,,,,,,,1500,1500,1496,1501,1499,1508,1500,1500,1100,1100,1100,0,0,0,0,0,0,0,0
2025-03-31 15:49:54.401318,SERVO_OUTPUT_RAW,1542,1518,1484,1540,1500,1500,1500,1500,,,,,,,,,,,,,,,,,,,
2025-03-31 15:49:54.404692,RC_CHANNELS,,,,,,,,,1500,1500,1500,1501,1496,1515,1500,1500,1100,1100,1100,0,0,0,0,0,0,0,0
2025-03-31 15:49:54.901708,SERVO_OUTPUT_RAW,1494,1532,1466,1496,1484,1484,1516,1484,,,,,,,,,,,,,,,,,,,
2025-03-31 15:49:54.907151,RC_CHANNELS,,,,,,,,,1500,1500,1510,1499,1519,1514,1500,1500,1100,1100,1100,0,0,0,0,0,0,0,0
2025-03-31 15:49:55.401398,SERVO_OUTPUT_RAW,1456,1692,1306,1458,1498,1498,1502,1498,,,,,,,,,,,,,,,,,,,
2025-03-31 15:49:55.404858,RC_CHANNELS,,,,,,,,,1500,1500,1502,1499,1619,1575,1500,1500,1100,1100,1100,0,0,0,0,0,0,0,0
2025-03-31 15:49:55.901649,SERVO_OUTPUT_RAW,1456,1694,1304,1458,1498,1498,1502,1498,,,,,,,,,,,,,,,,,,,
2025-03-31 15:49:55.904260,RC_CHANNELS,,,,,,,,,1500,1500,1502,1499,1619,1576,1500,1500,1100,1100,1100,0,0,0,0,0,0,0,0
2025-03-31 15:49:56.401063,SERVO_OUTPUT_RAW,1456,1694,1304,1458,1498,1498,1502,1498,,,,,,,,,,,,,,,,,,,
2025-03-31 15:49:56.404411,RC_CHANNELS,,,,,,,,,1500,1500,1502,1499,1619,1576,1500,1500,1100,1100,1100,0,0,0,0,0,0,0,0
2025-03-31 15:49:56.900102,SERVO_OUTPUT_RAW,1426,1728,1270,1428,1498,1498,1502,1498,,,,,,,,,,,,,,,,,,,
2025-03-31 15:49:56.903902,RC_CHANNELS,,,,,,,,,1500,1500,1502,1499,1652,1578,1500,1500,1100,1100,1100,0,0,0,0,0,0,0,0
2025-03-31 15:49:57.402099,SERVO_OUTPUT_RAW,1427,1729,1269,1429,1498,1498,1502,1498,,,,,,,,,,,,,,,,,,,
2025-03-31 15:49:57.405971,RC_CHANNELS,,,,,,,,,1500,1500,1502,1499,1651,1579,1500,1500,1100,1100,1100,0,0,0,0,0,0,0,0
2025-03-31 15:49:57.902844,SERVO_OUTPUT_RAW,1427,1729,1269,1429,1498,1498,1502,1498,,,,,,,,,,,,,,,,,,,
2025-03-31 15:49:57.904840,RC_CHANNELS,,,,,,,,,1500,1500,1502,1499,1651,1579,1500,1500,1100,1100,1100,0,0,0,0,0,0,0,0
2025-03-31 15:49:58.420060,SERVO_OUTPUT_RAW,1427,1729,1269,1429,1498,1498,1502,1498,,,,,,,,,,,,,,,,,,,
2025-03-31 15:49:58.422428,RC_CHANNELS,,,,,,,,,1500,1500,1502,1499,1651,1579,1500,1500,1100,1100,1100,0,0,0,0,0,0,0,0
2025-03-31 15:49:58.921446,SERVO_OUTPUT_RAW,1427,1729,1269,1429,1498,1498,1502,1498,,,,,,,,,,,,,,,,,,,
2025-03-31 15:49:58.921825,RC_CHANNELS,,,,,,,,,1500,1500,1502,1499,1651,1579,1500,1500,1100,1100,1100,0,0,0,0,0,0,0,0
2025-03-31 15:49:59.421087,SERVO_OUTPUT_RAW,1427,1729,1269,1429,1498,1498,1502,1498,,,,,,,,,,,,,,,,,,,
2025-03-31 15:49:59.424528,RC_CHANNELS,,,,,,,,,1500,1500,1502,1499,1651,1579,1500,1500,1100,1100,1100,0,0,0,0,0,0,0,0
2025-03-31 15:49:59.922352,SERVO_OUTPUT_RAW,1427,1729,1269,1429,1498,1498,1502,1498,,,,,,,,,,,,,,,,,,,
2025-03-31 15:49:59.931333,RC_CHANNELS,,,,,,,,,1500,1500,1502,1499,1651,1579,1500,1500,1100,1100,1100,0,0,0,0,0,0,0,0
2025-03-31 15:50:00.421257,SERVO_OUTPUT_RAW,1427,1729,1269,1429,1498,1498,1502,1498,,,,,,,,,,,,,,,,,,,
2025-03-31 15:50:00.423456,RC_CHANNELS,,,,,,,,,1500,1500,1502,1499,1651,1579,1500,1500,1100,1100,1100,0,0,0,0,0,0,0,0
2025-03-31 15:50:00.921162,SERVO_OUTPUT_RAW,1427,1729,1269,1429,1498,1498,1502,1498,,,,,,,,,,,,,,,,,,,
2025-03-31 15:50:00.924548,RC_CHANNELS,,,,,,,,,1500,1500,1502,1499,1651,1579,1500,1500,1100,1100,1100,0,0,0,0,0,0,0,0
2025-03-31 15:50:01.421461,SERVO_OUTPUT_RAW,1428,1728,1270,1430,1498,1498,1502,1498,,,,,,,,,,,,,,,,,,,
2025-03-31 15:50:01.425452,RC_CHANNELS,,,,,,,,,1500,1500,1502,1499,1650,1579,1500,1500,1100,1100,1100,0,0,0,0,0,0,0,0
2025-03-31 15:50:01.921195,SERVO_OUTPUT_RAW,1428,1728,1270,1430,1498,1498,1502,1498,,,,,,,,,,,,,,,,,,,
2025-03-31 15:50:01.923488,RC_CHANNELS,,,,,,,,,1500,1500,1502,1499,1650,1579,1500,1500,1100,1100,1100,0,0,0,0,0,0,0,0
2025-03-31 15:50:02.440812,SERVO_OUTPUT_RAW,1431,1731,1267,1433,1498,1498,1502,1498,,,,,,,,,,,,,,,,,,,
2025-03-31 15:50:02.444903,RC_CHANNELS,,,,,,,,,1500,1500,1502,1499,1650,1583,1500,1500,1100,1100,1100,0,0,0,0,0,0,0,0
2025-03-31 15:50:02.941203,SERVO_OUTPUT_RAW,1375,1769,1229,1377,1498,1498,1502,1498,,,,,,,,,,,,,,,,,,,
2025-03-31 15:50:02.944591,RC_CHANNELS,,,,,,,,,1500,1500,1502,1499,1698,1573,1500,1500,1100,1100,1100,0,0,0,0,0,0,0,0
2025-03-31 15:50:03.462134,SERVO_OUTPUT_RAW,1374,1770,1228,1376,1498,1498,1502,1498,,,,,,,,,,,,,,,,,,,
2025-03-31 15:50:03.465804,RC_CHANNELS,,,,,,,,,1500,1500,1502,1499,1698,1573,1500,1500,1100,1100,1100,0,0,0,0,0,0,0,0
2025-03-31 15:50:03.980974,SERVO_OUTPUT_RAW,1374,1770,1228,1376,1498,1498,1502,1498,,,,,,,,,,,,,,,,,,,
2025-03-31 15:50:03.984231,RC_CHANNELS,,,,,,,,,1500,1500,1502,1499,1698,1573,1500,1500,1100,1100,1100,0,0,0,0,0,0,0,0
2025-03-31 15:50:04.482341,SERVO_OUTPUT_RAW,1374,1770,1228,1376,1498,1498,1502,1498,,,,,,,,,,,,,,,,,,,
2025-03-31 15:50:04.484751,RC_CHANNELS,,,,,,,,,1500,1500,1502,1499,1698,1573,1500,1500,1100,1100,1100,0,0,0,0,0,0,0,0
2025-03-31 15:50:04.980595,SERVO_OUTPUT_RAW,1374,1770,1228,1376,1498,1498,1502,1498,,,,,,,,,,,,,,,,,,,
2025-03-31 15:50:04.984449,RC_CHANNELS,,,,,,,,,1500,1500,1502,1499,1698,1573,1500,1500,1100,1100,1100,0,0,0,0,0,0,0,0
2025-03-31 15:50:05.481560,SERVO_OUTPUT_RAW,1374,1770,1228,1376,1499,1499,1501,1499,,,,,,,,,,,,,,,,,,,
2025-03-31 15:50:05.485057,RC_CHANNELS,,,,,,,,,1500,1500,1501,1499,1698,1573,1500,1500,1100,1100,1100,0,0,0,0,0,0,0,0
2025-03-31 15:50:05.983429,SERVO_OUTPUT_RAW,1373,1769,1227,1377,1499,1499,1501,1499,,,,,,,,,,,,,,,,,,,
2025-03-31 15:50:05.986037,RC_CHANNELS,,,,,,,,,1500,1500,1501,1498,1698,1573,1500,1500,1100,1100,1100,0,0,0,0,0,0,0,0
2025-03-31 15:50:06.499812,SERVO_OUTPUT_RAW,1362,1758,1216,1388,1499,1499,1501,1499,,,,,,,,,,,,,,,,,,,
2025-03-31 15:50:06.501883,RC_CHANNELS,,,,,,,,,1500,1500,1501,1487,1698,1573,1500,1500,1100,1100,1100,0,0,0,0,0,0,0,0
2025-03-31 15:50:07.030303,SERVO_OUTPUT_RAW,1358,1754,1212,1392,1500,1500,1500,1500,,,,,,,,,,,,,,,,,,,
2025-03-31 15:50:07.032742,RC_CHANNELS,,,,,,,,,1500,1500,1500,1483,1698,1573,1500,1500,1100,1100,1100,0,0,0,0,0,0,0,0
2025-03-31 15:50:07.521014,SERVO_OUTPUT_RAW,1358,1754,1212,1392,1500,1500,1500,1500,,,,,,,,,,,,,,,,,,,
2025-03-31 15:50:07.528131,RC_CHANNELS,,,,,,,,,1500,1500,1500,1483,1698,1573,1500,1500,1100,1100,1100,0,0,0,0,0,0,0,0
2025-03-31 15:50:08.032380,SERVO_OUTPUT_RAW,1358,1754,1212,1392,1500,1500,1500,1500,,,,,,,,,,,,,,,,,,,
2025-03-31 15:50:08.034505,RC_CHANNELS,,,,,,,,,1500,1500,1500,1483,1698,1573,1500,1500,1100,1100,1100,0,0,0,0,0,0,0,0
2025-03-31 15:50:08.542056,SERVO_OUTPUT_RAW,1358,1754,1212,1392,1500,1500,1500,1500,,,,,,,,,,,,,,,,,,,
2025-03-31 15:50:08.544446,RC_CHANNELS,,,,,,,,,1500,1500,1500,1483,1698,1573,1500,1500,1100,1100,1100,0,0,0,0,0,0,0,0
2025-03-31 15:50:09.041645,SERVO_OUTPUT_RAW,1360,1756,1214,1390,1500,1500,1500,1500,,,,,,,,,,,,,,,,,,,
2025-03-31 15:50:09.045009,RC_CHANNELS,,,,,,,,,1500,1500,1500,1487,1698,1573,1500,1500,1100,1100,1100,0,0,0,0,0,0,0,0
2025-03-31 15:50:09.565904,SERVO_OUTPUT_RAW,1491,1484,1493,1513,1430,1430,1570,1430,,,,,,,,,,,,,,,,,,,
2025-03-31 15:50:09.567700,RC_CHANNELS,,,,,,,,,1500,1500,1575,1489,1495,1499,1500,1500,1100,1100,1100,0,0,0,0,0,0,0,0
2025-03-31 15:50:10.081901,SERVO_OUTPUT_RAW,1484,1470,1486,1528,1425,1425,1575,1425,,,,,,,,,,,,,,,,,,,
2025-03-31 15:50:10.088473,RC_CHANNELS,,,,,,,,,1500,1500,1538,1480,1503,1492,1500,1500,1100,1100,1100,0,0,0,0,0,0,0,0
2025-03-31 15:50:10.579628,SERVO_OUTPUT_RAW,1197,1597,1379,1221,1498,1498,1502,1498,,,,,,,,,,,,,,,,,,,
2025-03-31 15:50:10.582212,RC_CHANNELS,,,,,,,,,1500,1500,1502,1488,1700,1407,1500,1500,1100,1100,1100,0,0,0,0,0,0,0,0
2025-03-31 15:50:11.100043,SERVO_OUTPUT_RAW,1187,1585,1391,1211,1498,1498,1502,1498,,,,,,,,,,,,,,,,,,,
2025-03-31 15:50:11.102607,RC_CHANNELS,,,,,,,,,1500,1500,1502,1488,1699,1398,1500,1500,1100,1100,1100,0,0,0,0,0,0,0,0
2025-03-31 15:50:11.601103,SERVO_OUTPUT_RAW,1187,1585,1391,1211,1498,1498,1502,1498,,,,,,,,,,,,,,,,,,,
2025-03-31 15:50:11.604564,RC_CHANNELS,,,,,,,,,1500,1500,1502,1488,1699,1398,1500,1500,1100,1100,1100,0,0,0,0,0,0,0,0
2025-03-31 15:50:12.120243,SERVO_OUTPUT_RAW,1187,1585,1391,1211,1498,1498,1502,1498,,,,,,,,,,,,,,,,,,,
2025-03-31 15:50:12.122824,RC_CHANNELS,,,,,,,,,1500,1500,1502,1488,1699,1398,1500,1500,1100,1100,1100,0,0,0,0,0,0,0,0
2025-03-31 15:50:12.621986,SERVO_OUTPUT_RAW,1521,1429,1546,1545,1498,1498,1502,1498,,,,,,,,,,,,,,,,,,,
2025-03-31 15:50:12.627037,RC_CHANNELS,,,,,,,,,1500,1500,1502,1488,1398,1484,1500,1500,1100,1100,1100,0,0,0,0,0,0,0,0
2025-03-31 15:50:13.120680,SERVO_OUTPUT_RAW,1633,1569,1406,1657,1498,1498,1502,1498,,,,,,,,,,,,,,,,,,,
2025-03-31 15:50:13.125836,RC_CHANNELS,,,,,,,,,1500,1500,1502,1488,1468,1660,1500,1500,1100,1100,1100,0,0,0,0,0,0,0,0
2025-03-31 15:50:13.620575,SERVO_OUTPUT_RAW,1515,1505,1493,1517,1508,1508,1492,1508,,,,,,,,,,,,,,,,,,,
2025-03-31 15:50:13.624210,RC_CHANNELS,,,,,,,,,1500,1500,1492,1499,1495,1511,1500,1500,1100,1100,1100,0,0,0,0,0,0,0,0
2025-03-31 15:50:14.141409,SERVO_OUTPUT_RAW,1416,1428,1569,1418,1507,1507,1493,1507,,,,,,,,,,,,,,,,,,,
2025-03-31 15:50:14.144276,RC_CHANNELS,,,,,,,,,1500,1500,1493,1499,1510,1319,1500,1500,1100,1100,1100,0,0,0,0,0,0,0,0
2025-03-31 15:50:14.639683,SERVO_OUTPUT_RAW,1262,1336,1662,1264,1507,1507,1493,1507,,,,,,,,,,,,,,,,,,,
2025-03-31 15:50:14.643131,RC_CHANNELS,,,,,,,,,1500,1500,1493,1499,1537,1300,1500,1500,1100,1100,1100,0,0,0,0,0,0,0,0
2025-03-31 15:50:15.142203,SERVO_OUTPUT_RAW,1297,1375,1622,1299,1507,1507,1493,1507,,,,,,,,,,,,,,,,,,,
2025-03-31 15:50:15.146746,RC_CHANNELS,,,,,,,,,1500,1500,1493,1499,1497,1503,1500,1500,1100,1100,1100,0,0,0,0,0,0,0,0
2025-03-31 15:50:15.639537,SERVO_OUTPUT_RAW,1724,1674,1324,1726,1507,1507,1493,1507,,,,,,,,,,,,,,,,,,,
2025-03-31 15:50:15.642107,RC_CHANNELS,,,,,,,,,1500,1500,1493,1499,1475,1700,1500,1500,1100,1100,1100,0,0,0,0,0,0,0,0
2025-03-31 15:50:16.141867,SERVO_OUTPUT_RAW,1724,1674,1324,1726,1507,1507,1493,1507,,,,,,,,,,,,,,,,,,,
2025-03-31 15:50:16.147748,RC_CHANNELS,,,,,,,,,1500,1500,1493,1499,1475,1700,1500,1500,1100,1100,1100,0,0,0,0,0,0,0,0
2025-03-31 15:50:16.640414,SERVO_OUTPUT_RAW,1724,1674,1324,1726,1507,1507,1493,1507,,,,,,,,,,,,,,,,,,,
2025-03-31 15:50:16.643776,RC_CHANNELS,,,,,,,,,1500,1500,1493,1499,1475,1700,1500,1500,1100,1100,1100,0,0,0,0,0,0,0,0
2025-03-31 15:50:17.161424,SERVO_OUTPUT_RAW,1720,1678,1320,1722,1507,1507,1493,1507,,,,,,,,,,,,,,,,,,,
2025-03-31 15:50:17.165515,RC_CHANNELS,,,,,,,,,1500,1500,1493,1499,1480,1700,1500,1500,1100,1100,1100,0,0,0,0,0,0,0,0
2025-03-31 15:50:17.682514,SERVO_OUTPUT_RAW,1670,1718,1280,1672,1507,1507,1493,1507,,,,,,,,,,,,,,,,,,,
2025-03-31 15:50:17.686082,RC_CHANNELS,,,,,,,,,1500,1500,1493,1499,1524,1695,1500,1500,1100,1100,1100,0,0,0,0,0,0,0,0
2025-03-31 15:50:18.180725,SERVO_OUTPUT_RAW,1554,1530,1467,1556,1507,1507,1493,1507,,,,,,,,,,,,,,,,,,,
2025-03-31 15:50:18.184604,RC_CHANNELS,,,,,,,,,1500,1500,1493,1499,1482,1498,1500,1500,1100,1100,1100,0,0,0,0,0,0,0,0
2025-03-31 15:50:18.702263,SERVO_OUTPUT_RAW,1531,1521,1533,1477,1700,1700,1300,1700,,,,,,,,,,,,,,,,,,,
2025-03-31 15:50:18.708363,RC_CHANNELS,,,,,,,,,1500,1500,1300,1532,1495,1499,1500,1500,1100,1100,1100,0,0,0,0,0,0,0,0
2025-03-31 15:50:19.199328,SERVO_OUTPUT_RAW,1527,1517,1529,1481,1700,1700,1300,1700,,,,,,,,,,,,,,,,,,,
2025-03-31 15:50:19.202160,RC_CHANNELS,,,,,,,,,1500,1500,1300,1523,1495,1499,1500,1500,1100,1100,1100,0,0,0,0,0,0,0,0
2025-03-31 15:50:19.701311,SERVO_OUTPUT_RAW,1527,1517,1529,1481,1700,1700,1300,1700,,,,,,,,,,,,,,,,,,,
2025-03-31 15:50:19.706335,RC_CHANNELS,,,,,,,,,1500,1500,1300,1523,1495,1499,1500,1500,1100,1100,1100,0,0,0,0,0,0,0,0
2025-03-31 15:50:20.199468,SERVO_OUTPUT_RAW,1527,1517,1529,1481,1700,1700,1300,1700,,,,,,,,,,,,,,,,,,,
2025-03-31 15:50:20.204419,RC_CHANNELS,,,,,,,,,1500,1500,1300,1523,1495,1499,1500,1500,1100,1100,1100,0,0,0,0,0,0,0,0
2025-03-31 15:50:20.700275,SERVO_OUTPUT_RAW,1527,1517,1529,1481,1700,1700,1300,1700,,,,,,,,,,,,,,,,,,,
2025-03-31 15:50:20.703735,RC_CHANNELS,,,,,,,,,1500,1500,1300,1523,1495,1499,1500,1500,1100,1100,1100,0,0,0,0,0,0,0,0
2025-03-31 15:50:21.200718,SERVO_OUTPUT_RAW,1527,1517,1529,1481,1700,1700,1300,1700,,,,,,,,,,,,,,,,,,,
2025-03-31 15:50:21.204363,RC_CHANNELS,,,,,,,,,1500,1500,1300,1523,1495,1499,1500,1500,1100,1100,1100,0,0,0,0,0,0,0,0
2025-03-31 15:50:21.698662,SERVO_OUTPUT_RAW,1518,1522,1520,1475,1700,1700,1300,1700,,,,,,,,,,,,,,,,,,,
2025-03-31 15:50:21.701399,RC_CHANNELS,,,,,,,,,1500,1500,1300,1521,1502,1499,1500,1500,1100,1100,1100,0,0,0,0,0,0,0,0
2025-03-31 15:50:22.222352,SERVO_OUTPUT_RAW,1463,1560,1433,1469,1500,1500,1500,1500,,,,,,,,,,,,,,,,,,,
2025-03-31 15:50:22.228169,RC_CHANNELS,,,,,,,,,1500,1500,1500,1496,1598,1519,1500,1500,1100,1100,1100,0,0,0,0,0,0,0,0
2025-03-31 15:50:22.739761,SERVO_OUTPUT_RAW,1300,1700,1292,1308,1500,1500,1500,1500,,,,,,,,,,,,,,,,,,,
2025-03-31 15:50:22.742198,RC_CHANNELS,,,,,,,,,1500,1500,1500,1496,1700,1504,1500,1500,1100,1100,1100,0,0,0,0,0,0,0,0
2025-03-31 15:50:23.240846,SERVO_OUTPUT_RAW,1300,1700,1292,1308,1500,1500,1500,1500,,,,,,,,,,,,,,,,,,,
2025-03-31 15:50:23.246181,RC_CHANNELS,,,,,,,,,1500,1500,1500,1496,1700,1504,1500,1500,1100,1100,1100,0,0,0,0,0,0,0,0
2025-03-31 15:50:23.740431,SERVO_OUTPUT_RAW,1300,1700,1292,1308,1500,1500,1500,1500,,,,,,,,,,,,,,,,,,,
2025-03-31 15:50:23.743869,RC_CHANNELS,,,,,,,,,1500,1500,1500,1496,1700,1504,1500,1500,1100,1100,1100,0,0,0,0,0,0,0,0
2025-03-31 15:50:24.241130,SERVO_OUTPUT_RAW,1300,1700,1292,1308,1500,1500,1500,1500,,,,,,,,,,,,,,,,,,,
2025-03-31 15:50:24.246721,RC_CHANNELS,,,,,,,,,1500,1500,1500,1496,1700,1504,1500,1500,1100,1100,1100,0,0,0,0,0,0,0,0
2025-03-31 15:50:24.740357,SERVO_OUTPUT_RAW,1300,1700,1292,1308,1500,1500,1500,1500,,,,,,,,,,,,,,,,,,,
2025-03-31 15:50:24.743871,RC_CHANNELS,,,,,,,,,1500,1500,1500,1496,1700,1504,1500,1500,1100,1100,1100,0,0,0,0,0,0,0,0
2025-03-31 15:50:25.262083,SERVO_OUTPUT_RAW,1300,1700,1292,1308,1500,1500,1500,1500,,,,,,,,,,,,,,,,,,,
2025-03-31 15:50:25.267235,RC_CHANNELS,,,,,,,,,1500,1500,1500,1496,1700,1504,1500,1500,1100,1100,1100,0,0,0,0,0,0,0,0
2025-03-31 15:50:25.759217,SERVO_OUTPUT_RAW,1300,1700,1292,1308,1500,1500,1500,1500,,,,,,,,,,,,,,,,,,,
2025-03-31 15:50:25.761583,RC_CHANNELS,,,,,,,,,1500,1500,1500,1496,1700,1504,1500,1500,1100,1100,1100,0,0,0,0,0,0,0,0
2025-03-31 15:50:26.292450,SERVO_OUTPUT_RAW,1300,1700,1292,1308,1500,1500,1500,1500,,,,,,,,,,,,,,,,,,,
2025-03-31 15:50:26.300290,RC_CHANNELS,,,,,,,,,1500,1500,1500,1496,1700,1504,1500,1500,1100,1100,1100,0,0,0,0,0,0,0,0
2025-03-31 15:50:26.799468,SERVO_OUTPUT_RAW,1300,1700,1292,1308,1500,1500,1500,1500,,,,,,,,,,,,,,,,,,,
2025-03-31 15:50:26.801876,RC_CHANNELS,,,,,,,,,1500,1500,1500,1496,1700,1504,1500,1500,1100,1100,1100,0,0,0,0,0,0,0,0
2025-03-31 15:50:27.318987,SERVO_OUTPUT_RAW,1300,1700,1292,1308,1500,1500,1500,1500,,,,,,,,,,,,,,,,,,,
2025-03-31 15:50:27.321539,RC_CHANNELS,,,,,,,,,1500,1500,1500,1496,1700,1504,1500,1500,1100,1100,1100,0,0,0,0,0,0,0,0
2025-03-31 15:50:27.840171,SERVO_OUTPUT_RAW,1300,1700,1292,1308,1500,1500,1500,1500,,,,,,,,,,,,,,,,,,,
2025-03-31 15:50:27.844493,RC_CHANNELS,,,,,,,,,1500,1500,1500,1496,1700,1504,1500,1500,1100,1100,1100,0,0,0,0,0,0,0,0
2025-03-31 15:50:28.380538,SERVO_OUTPUT_RAW,1300,1700,1292,1308,1500,1500,1500,1500,,,,,,,,,,,,,,,,,,,
2025-03-31 15:50:28.384521,RC_CHANNELS,,,,,,,,,1500,1500,1500,1496,1700,1504,1500,1500,1100,1100,1100,0,0,0,0,0,0,0,0
2025-03-31 15:50:28.890910,SERVO_OUTPUT_RAW,1295,1695,1297,1303,1500,1500,1500,1500,,,,,,,,,,,,,,,,,,,
2025-03-31 15:50:28.893304,RC_CHANNELS,,,,,,,,,1500,1500,1500,1496,1700,1499,1500,1500,1100,1100,1100,0,0,0,0,0,0,0,0
2025-03-31 15:50:29.393422,SERVO_OUTPUT_RAW,1295,1695,1297,1303,1500,1500,1500,1500,,,,,,,,,,,,,,,,,,,
2025-03-31 15:50:29.397174,RC_CHANNELS,,,,,,,,,1500,1500,1500,1496,1700,1499,1500,1500,1100,1100,1100,0,0,0,0,0,0,0,0
2025-03-31 15:50:29.909265,SERVO_OUTPUT_RAW,1295,1695,1297,1303,1500,1500,1500,1500,,,,,,,,,,,,,,,,,,,
2025-03-31 15:50:29.914045,RC_CHANNELS,,,,,,,,,1500,1500,1500,1496,1700,1499,1500,1500,1100,1100,1100,0,0,0,0,0,0,0,0
2025-03-31 15:50:30.419037,SERVO_OUTPUT_RAW,1295,1695,1297,1303,1500,1500,1500,1500,,,,,,,,,,,,,,,,,,,
2025-03-31 15:50:30.423997,RC_CHANNELS,,,,,,,,,1500,1500,1500,1496,1700,1499,1500,1500,1100,1100,1100,0,0,0,0,0,0,0,0
